X,Y,objectid,featuretype,descripton,class,facility_name,facility_operationalstatus,facility_address,abs_suburb,facility_state,abs_postcode,facility_attribute_source,facility_attribute_date,facility_source,facility_date,facility_spatial_confidence,facility_revised,comment_,facility_lat,facility_long,validated,gnaf_building_name,gnaf_address_detail_pid,gnaf_formatted_address,gnaf_confidence,gnaf_postcode,gnaf_suburb,distance_to_gnaf,gnaf_lat,gnaf_long
143.145872,-38.233234,1,EMERGENCY FACILITY,"An emergency management facility from which a particular agency’s resources are commanded, coordinated and assigned to an incident or emergency",AMBULANCE STATION,CAMPERDOWN AMBULANCE STATION,OPERATIONAL,,CAMPERDOWN,VICTORIA,3260,HTTP://DATA.VIC.GOV.AU,,HTTP://DATA.VIC.GOV.AU,,,2018/06/06 00:00:00+00,,-38.233234,143.145872,,,GAVIC420554134,60 SCOTT STREET,2,3260,CAMPERDOWN,0,-38.23323338,143.1458726
149.151754,-37.563525,2,EMERGENCY FACILITY,"An emergency management facility from which a particular agency’s resources are commanded, coordinated and assigned to an incident or emergency",AMBULANCE STATION,CANN RIVER AMBULANCE STATION,OPERATIONAL,,CANN RIVER,VICTORIA,3890,HTTP://DATA.VIC.GOV.AU,,HTTP://DATA.VIC.GOV.AU,,,2018/06/06 00:00:00+00,,-37.563525,149.151754,,BUSH NURSING CENTRE,GAVIC423889336,25 MONARO HIGHWAY,2,3890,CANN RIVER,5,-37.56350471,149.1518097
145.069878,-37.822558,3,EMERGENCY FACILITY,"An emergency management facility from which a particular agency’s resources are commanded, coordinated and assigned to an incident or emergency",AMBULANCE STATION,CAMBERWELL AMBULANCE STATION,OPERATIONAL,,CANTERBURY,VICTORIA,3126,HTTP://DATA.VIC.GOV.AU,,HTTP://DATA.VIC.GOV.AU,,,2018/06/06 00:00:00+00,,-37.822558,145.069878,,,GAVIC421321456,61 CANTERBURY ROAD,1,3126,CANTERBURY,0,-37.822558,145.069877
144.885327,-38.361379,4,EMERGENCY FACILITY,"An emergency management facility from which a particular agency’s resources are commanded, coordinated and assigned to an incident or emergency",AMBULANCE STATION,ROSEBUD AMBULANCE STATION,OPERATIONAL,,CAPEL SOUND,VICTORIA,3940,HTTP://DATA.VIC.GOV.AU,,HTTP://DATA.VIC.GOV.AU,,,2018/06/06 00:00:00+00,,-38.361379,144.885327,,,GAVIC719202653,1517 POINT NEPEAN ROAD,1,3940,CAPEL SOUND,0,-38.36137917,144.8853268
144.962134,-37.803882,5,EMERGENCY FACILITY,"An emergency management facility from which a particular agency’s resources are commanded, coordinated and assigned to an incident or emergency",AMBULANCE STATION,CITY AMBULANCE STATION,OPERATIONAL,,CARLTON,VICTORIA,3053,HTTP://DATA.VIC.GOV.AU,,HTTP://DATA.VIC.GOV.AU,,,2018/06/06 00:00:00+00,,-37.803882,144.962134,,MFB STATION NO.3,GAVIC423441428,104-114 BOUVERIE STREET,1,3053,CARLTON,0,-37.8038817,144.9621337
145.056548,-37.885839,6,EMERGENCY FACILITY,"An emergency management facility from which a particular agency’s resources are commanded, coordinated and assigned to an incident or emergency",AMBULANCE STATION,CARNEGIE AMBULANCE STATION,OPERATIONAL,,CARNEGIE,VICTORIA,3163,HTTP://DATA.VIC.GOV.AU,,HTTP://DATA.VIC.GOV.AU,,,2018/06/06 00:00:00+00,,-37.885839,145.056548,,,GAVIC424087785,SE 1 63-65 ROSSTOWN ROAD,1,3163,CARNEGIE,1,-37.88583773,145.0565578
141.392979,-37.591109,7,EMERGENCY FACILITY,"An emergency management facility from which a particular agency’s resources are commanded, coordinated and assigned to an incident or emergency",AMBULANCE STATION,CASTERTON AMBULANCE STATION,OPERATIONAL,,CASTERTON,VICTORIA,3311,HTTP://DATA.VIC.GOV.AU,,HTTP://DATA.VIC.GOV.AU,,,2018/06/06 00:00:00+00,,-37.591109,141.392979,,,GAVIC411068997,59 RUSSELL STREET,2,3311,CASTERTON,0,-37.59110903,141.3929788
144.2206288,-37.05184776,8,EMERGENCY FACILITY,"An emergency management facility from which a particular agency’s resources are commanded, coordinated and assigned to an incident or emergency",AMBULANCE STATION,CASTLEMAINE AMBULANCE STATION,OPERATIONAL,,CASTLEMAINE,VICTORIA,3450,HTTP://DATA.VIC.GOV.AU,,HTTP://DATA.VIC.GOV.AU,,,2018/06/06 00:00:00+00,,-37.05184776,144.2206288,,,GAVIC419676558,6 HALFORD STREET,1,3450,CASTLEMAINE,5,-37.05187671,144.2206777
143.38266,-37.43062017,9,EMERGENCY FACILITY,"An emergency management facility from which a particular agency’s resources are commanded, coordinated and assigned to an incident or emergency",AMBULANCE STATION,BEAUFORT AMBULANCE STATION,OPERATIONAL,,BEAUFORT,VICTORIA,3373,HTTP://DATA.VIC.GOV.AU,,HTTP://DATA.VIC.GOV.AU,,,2018/06/06 00:00:00+00,,-37.43062017,143.38266,,ELIZABETH WATKIN KINDERGARTEN,GAVIC414291887,25 HAVELOCK STREET,1,3373,BEAUFORT,0,-37.43062024,143.3826601
146.69027,-36.353512,10,EMERGENCY FACILITY,"An emergency management facility from which a particular agency’s resources are commanded, coordinated and assigned to an incident or emergency",AMBULANCE STATION,BEECHWORTH AMBULANCE STATION,OPERATIONAL,,BEECHWORTH,VICTORIA,3747,HTTP://DATA.VIC.GOV.AU,,HTTP://DATA.VIC.GOV.AU,,,2018/06/06 00:00:00+00,,-36.353512,146.69027,,,GAVIC419740485,73 FINCH STREET,1,3747,BEECHWORTH,0,-36.3535121,146.6902703
145.35698,-37.909348,11,EMERGENCY FACILITY,"An emergency management facility from which a particular agency’s resources are commanded, coordinated and assigned to an incident or emergency",AMBULANCE STATION,BELGRAVE AMBULANCE STATION,OPERATIONAL,,BELGRAVE,VICTORIA,3160,HTTP://DATA.VIC.GOV.AU,,HTTP://DATA.VIC.GOV.AU,,,2018/06/06 00:00:00+00,,-37.909348,145.35698,,,GAVIC423517823,6 BAYVIEW ROAD,0,3160,BELGRAVE,0,-37.90934805,145.3569796
144.326704,-38.189816,12,EMERGENCY FACILITY,"An emergency management facility from which a particular agency’s resources are commanded, coordinated and assigned to an incident or emergency",AMBULANCE STATION,BELMONT AMBULANCE STATION,OPERATIONAL,,BELMONT,VICTORIA,3216,HTTP://DATA.VIC.GOV.AU,,HTTP://DATA.VIC.GOV.AU,,,2018/06/06 00:00:00+00,,-38.189816,144.326704,,,GAVIC425244547,9 REYNOLDS ROAD,1,3216,BELMONT,0,-38.18981655,144.3267032
144.283021,-36.751499,13,EMERGENCY FACILITY,"An emergency management facility from which a particular agency’s resources are commanded, coordinated and assigned to an incident or emergency",AMBULANCE STATION,BENDIGO AMBULANCE STATION,OPERATIONAL,,BENDIGO,VICTORIA,3550,HTTP://DATA.VIC.GOV.AU,,HTTP://DATA.VIC.GOV.AU,,,2018/06/06 00:00:00+00,,-36.751499,144.283021,,,GAVIC425092639,8-10 ULEY STREET,0,3550,BENDIGO,0,-36.75149915,144.2830211
145.296259,-37.836677,14,EMERGENCY FACILITY,"An emergency management facility from which a particular agency’s resources are commanded, coordinated and assigned to an incident or emergency",AMBULANCE STATION,BORONIA AMBULANCE STATION,OPERATIONAL,,BORONIA,VICTORIA,3155,HTTP://DATA.VIC.GOV.AU,,HTTP://DATA.VIC.GOV.AU,,,2018/06/06 00:00:00+00,,-37.836677,145.296259,,,GAVIC413636886,29 KALMAN DRIVE,1,3155,BORONIA,0,-37.83667668,145.2962584
145.116001,-37.812833,15,EMERGENCY FACILITY,"An emergency management facility from which a particular agency’s resources are commanded, coordinated and assigned to an incident or emergency",AMBULANCE STATION,BOX HILL AMBULANCE STATION,OPERATIONAL,,BOX HILL,VICTORIA,3128,HTTP://DATA.VIC.GOV.AU,,HTTP://DATA.VIC.GOV.AU,,,2018/06/06 00:00:00+00,,-37.812833,145.116001,,,GAVIC420400489,492 ELGAR ROAD,2,3128,BOX HILL,0,-37.812833,145.116
145.1144386,-37.82108131,16,EMERGENCY FACILITY,"An emergency management facility from which a particular agency’s resources are commanded, coordinated and assigned to an incident or emergency",AMBULANCE STATION,DONCASTER AMBULANCE STATION,OPERATIONAL,,BOX HILL,VICTORIA,3128,HTTP://DATA.VIC.GOV.AU,,HTTP://DATA.VIC.GOV.AU,,,2018/06/06 00:00:00+00,,-37.82108131,145.1144386,,,GAVIC420107210,406 ELGAR ROAD,2,3128,BOX HILL,0,-37.821081,145.114439
146.9726079,-36.72777691,17,EMERGENCY FACILITY,"An emergency management facility from which a particular agency’s resources are commanded, coordinated and assigned to an incident or emergency",AMBULANCE STATION,BRIGHT AMBULANCE STATION,OPERATIONAL,,BRIGHT,VICTORIA,3741,HTTP://DATA.VIC.GOV.AU,,HTTP://DATA.VIC.GOV.AU,,,2018/06/06 00:00:00+00,,-36.72777691,146.9726079,,,GAVIC420865310,45 MOUNTBATTEN AVENUE,0,3741,BRIGHT,0,-36.72777714,146.972608
145.017684,-37.915071,18,EMERGENCY FACILITY,"An emergency management facility from which a particular agency’s resources are commanded, coordinated and assigned to an incident or emergency",AMBULANCE STATION,BRIGHTON AMBULANCE STATION,OPERATIONAL,,BRIGHTON EAST,VICTORIA,3187,HTTP://DATA.VIC.GOV.AU,,HTTP://DATA.VIC.GOV.AU,,,2018/06/06 00:00:00+00,,-37.915071,145.017684,,,GAVIC421142079,641 NEPEAN HIGHWAY,2,3187,BRIGHTON EAST,0,-37.91507,145.017683
144.9510438,-37.6911198,19,EMERGENCY FACILITY,"An emergency management facility from which a particular agency’s resources are commanded, coordinated and assigned to an incident or emergency",AMBULANCE STATION,HADFIELD AMBULANCE STATION,OPERATIONAL,,BROADMEADOWS,VICTORIA,3047,HTTP://DATA.VIC.GOV.AU,,HTTP://DATA.VIC.GOV.AU,,,2018/06/06 00:00:00+00,,-37.6911198,144.9510438,,,GAVIC423897871,38 THE GATEWAY ,1,3047,BROADMEADOWS,0,-37.69111951,144.9510441
145.058763,-37.699175,20,EMERGENCY FACILITY,"An emergency management facility from which a particular agency’s resources are commanded, coordinated and assigned to an incident or emergency",AMBULANCE STATION,MICA 15 AMBULANCE STATION,OPERATIONAL,,BUNDOORA,VICTORIA,3083,HTTP://DATA.VIC.GOV.AU,,HTTP://DATA.VIC.GOV.AU,,,2018/06/06 00:00:00+00,,-37.699175,145.058763,,,GAVIC411020201,1316 PLENTY ROAD,1,3083,BUNDOORA,0,-37.69917528,145.0587631
145.159782,-37.853442,21,EMERGENCY FACILITY,"An emergency management facility from which a particular agency’s resources are commanded, coordinated and assigned to an incident or emergency",AMBULANCE STATION,VERMONT SOUTH AMBULANCE STATION,OPERATIONAL,,BURWOOD EAST,VICTORIA,3151,HTTP://DATA.VIC.GOV.AU,,HTTP://DATA.VIC.GOV.AU,,,2018/06/06 00:00:00+00,,-37.853442,145.159782,,,GAVIC420759037,287-293 BURWOOD HIGHWAY,1,3151,BURWOOD EAST,0,-37.85344273,145.1597815
145.074829,-37.84753001,22,EMERGENCY FACILITY,"An emergency management facility from which a particular agency’s resources are commanded, coordinated and assigned to an incident or emergency",AMBULANCE STATION,HARTWELL AMBULANCE STATION,OPERATIONAL,,CAMBERWELL,VICTORIA,3124,HTTP://DATA.VIC.GOV.AU,,HTTP://DATA.VIC.GOV.AU,,,2018/06/06 00:00:00+00,,-37.84753,145.074829,,,GAVIC420409375,616 CAMBERWELL ROAD,1,3124,CAMBERWELL,0,-37.84753,145.074829
144.9696635,-37.65495984,23,EMERGENCY FACILITY,"An emergency management facility from which a particular agency’s resources are commanded, coordinated and assigned to an incident or emergency",AMBULANCE STATION,NORTH SRC AMBULANCE STATION,OPERATIONAL,,CAMPBELLFIELD,VICTORIA,3061,HTTP://DATA.VIC.GOV.AU,,HTTP://DATA.VIC.GOV.AU,,,2018/06/06 00:00:00+00,,-37.65495984,144.9696635,,,GAVIC424281865,47 METROLINK CIRCUIT,1,3061,CAMPBELLFIELD,0,-37.65495993,144.9696638
144.9454561,-37.64332143,24,EMERGENCY FACILITY,"An emergency management facility from which a particular agency’s resources are commanded, coordinated and assigned to an incident or emergency",AMBULANCE STATION,ROXBURGH PARK AMBULANCE STATION,OPERATIONAL,,CAMPBELLFIELD,VICTORIA,3061,HTTP://DATA.VIC.GOV.AU,,HTTP://DATA.VIC.GOV.AU,,,2018/06/06 00:00:00+00,,-37.64332143,144.9454561,,,GAVIC425466901,6 LEADER STREET,1,3061,CAMPBELLFIELD,0,-37.64332155,144.9454565
145.718101,-37.19553763,25,EMERGENCY FACILITY,"An emergency management facility from which a particular agency’s resources are commanded, coordinated and assigned to an incident or emergency",AMBULANCE STATION,ALEXANDRA AMBULANCE STATION,OPERATIONAL,,ALEXANDRA,VICTORIA,3714,HTTP://DATA.VIC.GOV.AU,,HTTP://DATA.VIC.GOV.AU,,,2018/06/06 00:00:00+00,,-37.19553763,145.718101,,,GAVIC425744480,18 WATTLE STREET,0,3714,ALEXANDRA,105,-37.19601977,145.7170886
145.020041,-37.782144,26,EMERGENCY FACILITY,"An emergency management facility from which a particular agency’s resources are commanded, coordinated and assigned to an incident or emergency",AMBULANCE STATION,NORTHCOTE AMBULANCE STATION,OPERATIONAL,,ALPHINGTON,VICTORIA,3078,HTTP://DATA.VIC.GOV.AU,,HTTP://DATA.VIC.GOV.AU,,,2018/06/06 00:00:00+00,,-37.782144,145.020041,,,GAVIC424531315,23-27 AUSTIN STREET,0,3078,ALPHINGTON,0,-37.7821447,145.0200409
144.846152,-37.831169,27,EMERGENCY FACILITY,"An emergency management facility from which a particular agency’s resources are commanded, coordinated and assigned to an incident or emergency",AMBULANCE STATION,ALTONA AMBULANCE STATION,OPERATIONAL,,ALTONA NORTH,VICTORIA,3025,HTTP://DATA.VIC.GOV.AU,,HTTP://DATA.VIC.GOV.AU,,,2018/06/06 00:00:00+00,,-37.831169,144.846152,,,GAVIC421026975,391-397 BLACKSHAWS ROAD,1,3025,ALTONA NORTH,0,-37.831168,144.846152
144.184569,-38.40985,28,EMERGENCY FACILITY,"An emergency management facility from which a particular agency’s resources are commanded, coordinated and assigned to an incident or emergency",AMBULANCE STATION,ANGLESEA AMBULANCE STATION,OPERATIONAL,,ANGLESEA,VICTORIA,3230,HTTP://DATA.VIC.GOV.AU,,HTTP://DATA.VIC.GOV.AU,,,2018/06/06 00:00:00+00,,-38.40985,144.184569,,SENIOR CITIZENS CLUB,GAVIC420042811,3 MCMILLAN STREET,2,3230,ANGLESEA,0,-38.4098498,144.1845693
143.664519,-38.753927,29,EMERGENCY FACILITY,"An emergency management facility from which a particular agency’s resources are commanded, coordinated and assigned to an incident or emergency",AMBULANCE STATION,APOLLO BAY AMBULANCE STATION,OPERATIONAL,,APOLLO BAY,VICTORIA,3233,HTTP://DATA.VIC.GOV.AU,,HTTP://DATA.VIC.GOV.AU,,,2018/06/06 00:00:00+00,,-38.753927,143.664519,,,GAVIC421178439,6 PENGILLEY AVENUE,2,3233,APOLLO BAY,0,-38.75392728,143.6645184
142.931357,-37.278496,30,EMERGENCY FACILITY,"An emergency management facility from which a particular agency’s resources are commanded, coordinated and assigned to an incident or emergency",AMBULANCE STATION,ARARAT AMBULANCE STATION,OPERATIONAL,,ARARAT,VICTORIA,3377,HTTP://DATA.VIC.GOV.AU,,HTTP://DATA.VIC.GOV.AU,,,2018/06/06 00:00:00+00,,-37.278496,142.931357,,,GAVIC423746450,2 BASHAM STREET,0,3377,ARARAT,0,-37.27849614,142.9313564
143.468534,-37.092609,31,EMERGENCY FACILITY,"An emergency management facility from which a particular agency’s resources are commanded, coordinated and assigned to an incident or emergency",AMBULANCE STATION,AVOCA AMBULANCE STATION,OPERATIONAL,,AVOCA,VICTORIA,3467,HTTP://DATA.VIC.GOV.AU,,HTTP://DATA.VIC.GOV.AU,,,2018/06/06 00:00:00+00,,-37.092609,143.468534,,,GAVIC421869799,5 LIEBIG STREET,1,3467,AVOCA,0,-37.0926093,143.4685342
144.443236,-37.676419,32,EMERGENCY FACILITY,"An emergency management facility from which a particular agency’s resources are commanded, coordinated and assigned to an incident or emergency",AMBULANCE STATION,BACCHUS MARSH AMBULANCE STATION,OPERATIONAL,,BACCHUS MARSH,VICTORIA,3340,HTTP://DATA.VIC.GOV.AU,,HTTP://DATA.VIC.GOV.AU,,,2018/06/06 00:00:00+00,,-37.676419,144.443236,,,GAVIC421556719,230 MAIN STREET,1,3340,BACCHUS MARSH,3,-37.67642362,144.4432717
147.613099,-37.829588,33,EMERGENCY FACILITY,"An emergency management facility from which a particular agency’s resources are commanded, coordinated and assigned to an incident or emergency",AMBULANCE STATION,BAIRNSDALE AMBULANCE STATION,OPERATIONAL,,BAIRNSDALE,VICTORIA,3875,HTTP://DATA.VIC.GOV.AU,,HTTP://DATA.VIC.GOV.AU,,,2018/06/06 00:00:00+00,,-37.829588,147.613099,,,GAVIC424450137,446 MAIN STREET,1,3875,BAIRNSDALE,0,-37.82958754,147.6130984
143.8664852,-37.56120107,34,EMERGENCY FACILITY,"An emergency management facility from which a particular agency’s resources are commanded, coordinated and assigned to an incident or emergency",AMBULANCE STATION,BALLARAT AMBULANCE STATION,OPERATIONAL,,BAKERY HILL,VICTORIA,3350,HTTP://DATA.VIC.GOV.AU,,HTTP://DATA.VIC.GOV.AU,,,2018/06/06 00:00:00+00,,-37.56120107,143.8664852,,BALLARAT AND DISTRICT AMBULANCE STATION,GAVIC423548274,46 HUMFFRAY STREET,1,3350,BAKERY HILL,0,-37.56120096,143.8664854
144.228794,-37.602334,35,EMERGENCY FACILITY,"An emergency management facility from which a particular agency’s resources are commanded, coordinated and assigned to an incident or emergency",AMBULANCE STATION,BALLAN AMBULANCE STATION,OPERATIONAL,,BALLAN,VICTORIA,3342,HTTP://DATA.VIC.GOV.AU,,HTTP://DATA.VIC.GOV.AU,,,2018/06/06 00:00:00+00,,-37.602334,144.228794,,,GAVIC423825106,66 EDOLS STREET,1,3342,BALLAN,5,-37.60231213,144.2288407
141.841866,-37.249518,36,EMERGENCY FACILITY,"An emergency management facility from which a particular agency’s resources are commanded, coordinated and assigned to an incident or emergency",AMBULANCE STATION,BALMORAL AMBULANCE STATION,OPERATIONAL,,BALMORAL,VICTORIA,3407,HTTP://DATA.VIC.GOV.AU,,HTTP://DATA.VIC.GOV.AU,,,2018/06/06 00:00:00+00,,-37.249518,141.841866,,,GAVIC414323363,31 BELL STREET,1,3407,BALMORAL,0,-37.24951806,141.841866
144.1720744,-38.04940373,37,EMERGENCY FACILITY,"An emergency management facility from which a particular agency’s resources are commanded, coordinated and assigned to an incident or emergency",AMBULANCE STATION,BANNOCKBURN AMBULANCE STATION,OPERATIONAL,,BANNOCKBURN,VICTORIA,3331,HTTP://DATA.VIC.GOV.AU,,HTTP://DATA.VIC.GOV.AU,,,2018/06/06 00:00:00+00,,-38.04940373,144.1720744,,,GAVIC420859871,24 MOORE STREET,2,3331,BANNOCKBURN,0,-38.04940351,144.1720745
146.2651653,-37.84043941,38,EMERGENCY FACILITY,"An emergency management facility from which a particular agency’s resources are commanded, coordinated and assigned to an incident or emergency",AMBULANCE STATION,MOUNT BAW BAW AMBULANCE STATION,OPERATIONAL,,BAW BAW VILLAGE,VICTORIA,3833,HTTP://DATA.VIC.GOV.AU,,HTTP://DATA.VIC.GOV.AU,,,2018/06/06 00:00:00+00,,-37.84043941,146.2651653,,,GAVIC425819124,19 CURRAWONG ROAD,0,3833,BAW BAW VILLAGE,18,-37.840584,146.265259
145.2850192,-37.83182831,39,EMERGENCY FACILITY,"An emergency management facility from which a particular agency’s resources are commanded, coordinated and assigned to an incident or emergency",AMBULANCE STATION,EAST SRC AMBULANCE STATION,OPERATIONAL,,BAYSWATER NORTH,VICTORIA,3153,HTTP://DATA.VIC.GOV.AU,,HTTP://DATA.VIC.GOV.AU,,,2018/06/06 00:00:00+00,,-37.83182831,145.2850192,,,GAVIC423790207,UNIT 1 640 DORSET ROAD,1,3153,BAYSWATER NORTH,173,-37.83190308,145.2869783
145.3678256,-38.04656583,40,EMERGENCY FACILITY,"An emergency management facility from which a particular agency’s resources are commanded, coordinated and assigned to an incident or emergency",AMBULANCE STATION,BEACONSFIELD AMBULANCE STATION,OPERATIONAL,,BEACONSFIELD,VICTORIA,3807,HTTP://DATA.VIC.GOV.AU,,HTTP://DATA.VIC.GOV.AU,,,2018/06/06 00:00:00+00,,-38.04656583,145.3678256,,,GAVIC414633377,10 WOODS STREET,2,3807,BEACONSFIELD,0,-38.04656611,145.3678256
145.5274974,-37.6468552,41,EMERGENCY FACILITY,"An emergency management facility from which a particular agency’s resources are commanded, coordinated and assigned to an incident or emergency",AMBULANCE STATION,HEALESVILLE AMBULANCE STATION,OPERATIONAL,,HEALESVILLE,VICTORIA,3777,HTTP://DATA.VIC.GOV.AU,,HTTP://DATA.VIC.GOV.AU,,,2018/06/06 00:00:00+00,,-37.6468552,145.5274974,,HEALESVILLE AMBULANCE STATION,GAVIC419553287,23-25 WESTMOUNT ROAD,1,3777,HEALESVILLE,0,-37.646855,145.527497
144.698782,-36.914875,42,EMERGENCY FACILITY,"An emergency management facility from which a particular agency’s resources are commanded, coordinated and assigned to an incident or emergency",AMBULANCE STATION,HEATHCOTE AMBULANCE STATION,OPERATIONAL,,HEATHCOTE,VICTORIA,3523,HTTP://DATA.VIC.GOV.AU,,HTTP://DATA.VIC.GOV.AU,,,2018/06/06 00:00:00+00,,-36.914875,144.698782,,,GAVIC420959706,14 MARSHALL CRESCENT,1,3523,HEATHCOTE,0,-36.9148747,144.6987819
146.7904422,-37.9814679,43,EMERGENCY FACILITY,"An emergency management facility from which a particular agency’s resources are commanded, coordinated and assigned to an incident or emergency",AMBULANCE STATION,HEYFIELD AMBULANCE STATION,OPERATIONAL,,HEYFIELD,VICTORIA,3858,HTTP://DATA.VIC.GOV.AU,,HTTP://DATA.VIC.GOV.AU,,,2018/06/06 00:00:00+00,,-37.9814679,146.7904422,,,GAVIC420885838,1 GORDON STREET,1,3858,HEYFIELD,0,-37.98146675,146.7904423
141.626003,-38.13705402,44,EMERGENCY FACILITY,"An emergency management facility from which a particular agency’s resources are commanded, coordinated and assigned to an incident or emergency",AMBULANCE STATION,HEYWOOD AMBULANCE STATION,OPERATIONAL,,HEYWOOD,VICTORIA,3304,HTTP://DATA.VIC.GOV.AU,,HTTP://DATA.VIC.GOV.AU,,,2018/06/06 00:00:00+00,,-38.13705402,141.626003,,HEYWOOD AM,GAVIC420635510,15 BARCLAY STREET,1,3304,HEYWOOD,0,-38.13705423,141.626003
144.7328823,-37.6909998,45,EMERGENCY FACILITY,"An emergency management facility from which a particular agency’s resources are commanded, coordinated and assigned to an incident or emergency",AMBULANCE STATION,HILLSIDE AMBULANCE STATION,OPERATIONAL,,HILLSIDE,VICTORIA,3037,HTTP://DATA.VIC.GOV.AU,,HTTP://DATA.VIC.GOV.AU,,,2018/06/06 00:00:00+00,,-37.6909998,144.7328823,,,GAVIC424726677,2 BEATTYS ROAD,2,3037,HILLSIDE,0,-37.69099973,144.7328826
142.366067,-35.732072,46,EMERGENCY FACILITY,"An emergency management facility from which a particular agency’s resources are commanded, coordinated and assigned to an incident or emergency",AMBULANCE STATION,HOPETOUN AMBULANCE STATION,OPERATIONAL,,HOPETOUN,VICTORIA,3396,HTTP://DATA.VIC.GOV.AU,,HTTP://DATA.VIC.GOV.AU,,,2018/06/06 00:00:00+00,,-35.732072,142.366067,,,GAVIC423764559,UNIT 1 6 MITCHELL PLACE,1,3396,HOPETOUN,135,-35.73093913,142.3655103
144.7202434,-37.87614817,47,EMERGENCY FACILITY,"An emergency management facility from which a particular agency’s resources are commanded, coordinated and assigned to an incident or emergency",AMBULANCE STATION,HOPPERS CROSSING AMBULANCE STATION,OPERATIONAL,,HOPPERS CROSSING,VICTORIA,3029,HTTP://DATA.VIC.GOV.AU,,HTTP://DATA.VIC.GOV.AU,,,2018/06/06 00:00:00+00,,-37.87614817,144.7202434,,,GAVIC424277895,UNIT 10 3-4 DESIRE PLACE,1,3029,HOPPERS CROSSING,0,-37.8761482,144.7202431
142.202073,-36.718999,48,EMERGENCY FACILITY,"An emergency management facility from which a particular agency’s resources are commanded, coordinated and assigned to an incident or emergency",AMBULANCE STATION,HORSHAM AMBULANCE STATION,OPERATIONAL,,HORSHAM,VICTORIA,3400,HTTP://DATA.VIC.GOV.AU,,HTTP://DATA.VIC.GOV.AU,,,2018/06/06 00:00:00+00,,-36.718999,142.202073,,HORSHAM AMBULANCE STATION,GAVIC424590303,42 URQUHART STREET,1,3400,HORSHAM,0,-36.71899828,142.2020727
143.5875,-38.342261,49,EMERGENCY FACILITY,"An emergency management facility from which a particular agency’s resources are commanded, coordinated and assigned to an incident or emergency",AMBULANCE STATION,COLAC AMBULANCE STATION,OPERATIONAL,,COLAC,VICTORIA,3250,HTTP://DATA.VIC.GOV.AU,,HTTP://DATA.VIC.GOV.AU,,,2018/06/06 00:00:00+00,,-38.342261,143.5875,,,GAVIC423645955,24-26 RAE STREET,1,3250,COLAC,0,-38.34226079,143.5875002
141.6932709,-37.59941913,50,EMERGENCY FACILITY,"An emergency management facility from which a particular agency’s resources are commanded, coordinated and assigned to an incident or emergency",AMBULANCE STATION,COLERAINE AMBULANCE STATION,OPERATIONAL,,COLERAINE,VICTORIA,3315,HTTP://DATA.VIC.GOV.AU,,HTTP://DATA.VIC.GOV.AU,,,2018/06/06 00:00:00+00,,-37.59941913,141.6932709,,,GAVIC414214343,19 HENTY STREET,1,3315,COLERAINE,0,-37.59941921,141.6932708
147.903461,-36.1944458,51,EMERGENCY FACILITY,"An emergency management facility from which a particular agency’s resources are commanded, coordinated and assigned to an incident or emergency",AMBULANCE STATION,CORRYONG AMBULANCE STATION,OPERATIONAL,,CORRYONG,VICTORIA,3707,HTTP://DATA.VIC.GOV.AU,,HTTP://DATA.VIC.GOV.AU,,,2018/06/06 00:00:00+00,,-36.1944458,147.903461,,AMBULANCE STATION,GAVIC420116375,20 JARDINE STREET,1,3707,CORRYONG,0,-36.19444585,147.9034608
145.251056,-38.458883,52,EMERGENCY FACILITY,"An emergency management facility from which a particular agency’s resources are commanded, coordinated and assigned to an incident or emergency",AMBULANCE STATION,COWES AMBULANCE STATION,OPERATIONAL,,COWES,VICTORIA,3922,HTTP://DATA.VIC.GOV.AU,,HTTP://DATA.VIC.GOV.AU,,,2018/06/06 00:00:00+00,,-38.458883,145.251056,,,GAVIC423729290,14 INDUSTRIAL WAY,1,3922,COWES,0,-38.45888303,145.2510562
144.9178972,-37.59446043,53,EMERGENCY FACILITY,"An emergency management facility from which a particular agency’s resources are commanded, coordinated and assigned to an incident or emergency",AMBULANCE STATION,CRAIGIEBURN AMBULANCE STATION,OPERATIONAL,,CRAIGIEBURN,VICTORIA,3064,HTTP://DATA.VIC.GOV.AU,,HTTP://DATA.VIC.GOV.AU,,,2018/06/06 00:00:00+00,,-37.59446043,144.9178972,,,GAVIC425737820,109 LYGON DRIVE,1,3064,CRAIGIEBURN,87,-37.59524742,144.9179091
145.279146,-38.114601,54,EMERGENCY FACILITY,"An emergency management facility from which a particular agency’s resources are commanded, coordinated and assigned to an incident or emergency",AMBULANCE STATION,CRANBOURNE AMBULANCE STATION,OPERATIONAL,,CRANBOURNE,VICTORIA,3977,HTTP://DATA.VIC.GOV.AU,,HTTP://DATA.VIC.GOV.AU,,,2018/06/06 00:00:00+00,,-38.114601,145.279146,,,GAVIC424792928,15 GRANT STREET,1,3977,CRANBOURNE,17,-38.11452841,145.2789711
145.2732435,-38.0745289,55,EMERGENCY FACILITY,"An emergency management facility from which a particular agency’s resources are commanded, coordinated and assigned to an incident or emergency",AMBULANCE STATION,LYNDHURST AMBULANCE STATION,OPERATIONAL,,CRANBOURNE NORTH,VICTORIA,3977,HTTP://DATA.VIC.GOV.AU,,HTTP://DATA.VIC.GOV.AU,,,2018/06/06 00:00:00+00,,-38.0745289,145.2732435,,,GAVIC421337263,4 HUON PARK ROAD,2,3977,CRANBOURNE NORTH,0,-38.07452925,145.2732436
143.8849726,-37.40961088,56,EMERGENCY FACILITY,"An emergency management facility from which a particular agency’s resources are commanded, coordinated and assigned to an incident or emergency",AMBULANCE STATION,CRESWICK AMBULANCE STATION,OPERATIONAL,,CRESWICK,VICTORIA,3363,HTTP://DATA.VIC.GOV.AU,,HTTP://DATA.VIC.GOV.AU,,,2018/06/06 00:00:00+00,,-37.40961088,143.8849726,,,GAVIC425014116,25 DAVIES STREET,1,3363,CRESWICK,0,-37.4096108,143.884973
144.548807,-38.192883,57,EMERGENCY FACILITY,"An emergency management facility from which a particular agency’s resources are commanded, coordinated and assigned to an incident or emergency",AMBULANCE STATION,BELLARINE AMBULANCE STATION,OPERATIONAL,,CURLEWIS,VICTORIA,3222,HTTP://DATA.VIC.GOV.AU,,HTTP://DATA.VIC.GOV.AU,,,2018/06/06 00:00:00+00,,-38.192883,144.548807,,,GAVIC424357011,840-900 GRUBB ROAD,0,3222,DRYSDALE,0,-38.19288226,144.5488073
145.2068256,-37.97760214,58,EMERGENCY FACILITY,"An emergency management facility from which a particular agency’s resources are commanded, coordinated and assigned to an incident or emergency",AMBULANCE STATION,DANDENONG AMBULANCE STATION,OPERATIONAL,,DANDENONG,VICTORIA,3175,HTTP://DATA.VIC.GOV.AU,,HTTP://DATA.VIC.GOV.AU,,,2018/06/06 00:00:00+00,,-37.97760214,145.2068256,,,GAVIC420679733,120 PRINCES HIGHWAY,0,3175,DANDENONG,0,-37.977602,145.206825
145.2019038,-38.01109455,59,EMERGENCY FACILITY,"An emergency management facility from which a particular agency’s resources are commanded, coordinated and assigned to an incident or emergency",AMBULANCE STATION,SOUTH SRC AMBULANCE STATION,OPERATIONAL,,DANDENONG SOUTH,VICTORIA,3175,HTTP://DATA.VIC.GOV.AU,,HTTP://DATA.VIC.GOV.AU,,,2018/06/06 00:00:00+00,,-38.01109455,145.2019038,,,GAVIC425539467,82 SMEATON AVENUE,1,3175,DANDENONG SOUTH,0,-38.0110944,145.2019042
144.130599,-37.341189,60,EMERGENCY FACILITY,"An emergency management facility from which a particular agency’s resources are commanded, coordinated and assigned to an incident or emergency",AMBULANCE STATION,DAYLESFORD AMBULANCE STATION,OPERATIONAL,,DAYLESFORD,VICTORIA,3460,HTTP://DATA.VIC.GOV.AU,,HTTP://DATA.VIC.GOV.AU,,,2018/06/06 00:00:00+00,,-37.341189,144.130599,,,GAVIC420658823,4374 MIDLAND HIGHWAY,-1,3460,DAYLESFORD,0,-37.34118948,144.1305983
144.781124,-37.725509,61,EMERGENCY FACILITY,"An emergency management facility from which a particular agency’s resources are commanded, coordinated and assigned to an incident or emergency",AMBULANCE STATION,BRIMBANK AMBULANCE STATION,OPERATIONAL,,DELAHEY,VICTORIA,3037,HTTP://DATA.VIC.GOV.AU,,HTTP://DATA.VIC.GOV.AU,,,2018/06/06 00:00:00+00,,-37.725509,144.781124,,,GAVIC424496413,181-183 KINGS ROAD,0,3037,DELAHEY,0,-37.72550882,144.7811249
145.160623,-37.673839,62,EMERGENCY FACILITY,"An emergency management facility from which a particular agency’s resources are commanded, coordinated and assigned to an incident or emergency",AMBULANCE STATION,DIAMOND CREEK AMBULANCE STATION,OPERATIONAL,,DIAMOND CREEK,VICTORIA,3089,HTTP://DATA.VIC.GOV.AU,,HTTP://DATA.VIC.GOV.AU,,,2018/06/06 00:00:00+00,,-37.673839,145.160623,,,GAVIC423641270,83 MAIN HURSTBRIDGE ROAD,1,3089,DIAMOND CREEK,0,-37.67383909,145.1606229
142.027465,-36.455804,63,EMERGENCY FACILITY,"An emergency management facility from which a particular agency’s resources are commanded, coordinated and assigned to an incident or emergency",AMBULANCE STATION,DIMBOOLA AMBULANCE STATION,OPERATIONAL,,DIMBOOLA,VICTORIA,3414,HTTP://DATA.VIC.GOV.AU,,HTTP://DATA.VIC.GOV.AU,,,2018/06/06 00:00:00+00,,-36.455804,142.027465,,,GAVIC420571023,63 LLOYD STREET,1,3414,DIMBOOLA,0,-36.45580441,142.0274656
142.974022,-36.369349,64,EMERGENCY FACILITY,"An emergency management facility from which a particular agency’s resources are commanded, coordinated and assigned to an incident or emergency",AMBULANCE STATION,DONALD AMBULANCE STATION,OPERATIONAL,,DONALD,VICTORIA,3480,HTTP://DATA.VIC.GOV.AU,,HTTP://DATA.VIC.GOV.AU,,,2018/06/06 00:00:00+00,,-36.369349,142.974022,,,GAVIC424450546,29 MCCRACKEN AVENUE,2,3480,DONALD,0,-36.36934943,142.9740223
145.8325477,-38.11989031,65,EMERGENCY FACILITY,"An emergency management facility from which a particular agency’s resources are commanded, coordinated and assigned to an incident or emergency",AMBULANCE STATION,DROUIN AMBULANCE STATION,OPERATIONAL,,DROUIN,VICTORIA,3818,HTTP://DATA.VIC.GOV.AU,,HTTP://DATA.VIC.GOV.AU,,,2018/06/06 00:00:00+00,,-38.11989031,145.8325477,,,GAVIC424237036,2 DARCAN WAY,1,3818,DROUIN,0,-38.11989016,145.8325474
144.6122478,-38.19452327,66,EMERGENCY FACILITY,"An emergency management facility from which a particular agency’s resources are commanded, coordinated and assigned to an incident or emergency",AMBULANCE STATION,SWAN BAY AMBULANCE STATION,OPERATIONAL,,DRYSDALE,VICTORIA,3222,HTTP://DATA.VIC.GOV.AU,,HTTP://DATA.VIC.GOV.AU,,,2018/06/06 00:00:00+00,,-38.19452327,144.6122478,,,GAVIC424962832,38-40 BANKS ROAD,1,3222,DRYSDALE,192,-38.19596379,144.611039
144.2502,-36.718019,67,EMERGENCY FACILITY,"An emergency management facility from which a particular agency’s resources are commanded, coordinated and assigned to an incident or emergency",AMBULANCE STATION,EAGLEHAWK AMBULANCE STATION,OPERATIONAL,,EAGLEHAWK,VICTORIA,3556,HTTP://DATA.VIC.GOV.AU,,HTTP://DATA.VIC.GOV.AU,,,2018/06/06 00:00:00+00,,-36.718019,144.2502,,,GAVIC414423292,2 MARKET STREET,0,3556,EAGLEHAWK,0,-36.71801915,144.2502007
144.7522063,-36.1407146,68,EMERGENCY FACILITY,"An emergency management facility from which a particular agency’s resources are commanded, coordinated and assigned to an incident or emergency",AMBULANCE STATION,ECHUCA AMBULANCE STATION,OPERATIONAL,,ECHUCA,VICTORIA,3564,HTTP://DATA.VIC.GOV.AU,,HTTP://DATA.VIC.GOV.AU,,,2018/06/06 00:00:00+00,,-36.1407146,144.7522063,,,GAVIC423756489,217 OGILVIE AVENUE,0,3564,ECHUCA,4,-36.14071429,144.7521638
141.285531,-37.034362,69,EMERGENCY FACILITY,"An emergency management facility from which a particular agency’s resources are commanded, coordinated and assigned to an incident or emergency",AMBULANCE STATION,EDENHOPE AMBULANCE STATION,OPERATIONAL,,EDENHOPE,VICTORIA,3318,HTTP://DATA.VIC.GOV.AU,,HTTP://DATA.VIC.GOV.AU,,,2018/06/06 00:00:00+00,,-37.034362,141.285531,,,GAVIC424536106,156 ELIZABETH STREET,1,3318,EDENHOPE,12,-37.03441013,141.285408
145.913828,-37.229542,70,EMERGENCY FACILITY,"An emergency management facility from which a particular agency’s resources are commanded, coordinated and assigned to an incident or emergency",AMBULANCE STATION,EILDON AMBULANCE STATION,OPERATIONAL,,EILDON,VICTORIA,3713,HTTP://DATA.VIC.GOV.AU,,HTTP://DATA.VIC.GOV.AU,,,2018/06/06 00:00:00+00,,-37.229542,145.913828,,DARLINGFORD NURSING HOME,GAVIC421744103,3 HIGH STREET,1,3713,EILDON,20,-37.22940475,145.9139768
145.139497,-37.71682293,71,EMERGENCY FACILITY,"An emergency management facility from which a particular agency’s resources are commanded, coordinated and assigned to an incident or emergency",AMBULANCE STATION,ELTHAM NORTH AMBULANCE STATION,OPERATIONAL,,ELTHAM,VICTORIA,3095,HTTP://DATA.VIC.GOV.AU,,HTTP://DATA.VIC.GOV.AU,,,2018/06/06 00:00:00+00,,-37.71682293,145.139497,,,GAVIC421588584,UNIT 4 15 BRISBANE STREET,1,3095,ELTHAM,0,-37.71682321,145.1394974
145.438447,-37.933521,72,EMERGENCY FACILITY,"An emergency management facility from which a particular agency’s resources are commanded, coordinated and assigned to an incident or emergency",AMBULANCE STATION,EMERALD AMBULANCE STATION,OPERATIONAL,,EMERALD,VICTORIA,3782,HTTP://DATA.VIC.GOV.AU,,HTTP://DATA.VIC.GOV.AU,,,2018/06/06 00:00:00+00,,-37.933521,145.438447,,,GAVIC421123343,12 MEMORIAL AVENUE,1,3782,EMERALD,0,-37.93352,145.438446
145.257195,-37.976566,73,EMERGENCY FACILITY,"An emergency management facility from which a particular agency’s resources are commanded, coordinated and assigned to an incident or emergency",AMBULANCE STATION,ENDEAVOUR HILLS AMBULANCE STATION,OPERATIONAL,,ENDEAVOUR HILLS,VICTORIA,3802,HTTP://DATA.VIC.GOV.AU,,HTTP://DATA.VIC.GOV.AU,,,2018/06/06 00:00:00+00,,-37.976566,145.257195,,,GAVIC414572565,48-50 MONKHOUSE DRIVE,2,3802,ENDEAVOUR HILLS,0,-37.976566,145.257195
147.835214,-37.375444,74,EMERGENCY FACILITY,"An emergency management facility from which a particular agency’s resources are commanded, coordinated and assigned to an incident or emergency",AMBULANCE STATION,TAMBO VALLEY AMBULANCE STATION,OPERATIONAL,,ENSAY,VICTORIA,3895,HTTP://DATA.VIC.GOV.AU,,HTTP://DATA.VIC.GOV.AU,,,2018/06/06 00:00:00+00,,-37.375444,147.835214,,,GAVIC423828087,5063 GREAT ALPINE ROAD,1,3895,ENSAY,0,-37.37544393,147.8352144
145.041656,-37.64625,75,EMERGENCY FACILITY,"An emergency management facility from which a particular agency’s resources are commanded, coordinated and assigned to an incident or emergency",AMBULANCE STATION,EPPING AMBULANCE STATION,OPERATIONAL,,EPPING,VICTORIA,3076,HTTP://DATA.VIC.GOV.AU,,HTTP://DATA.VIC.GOV.AU,,,2018/06/06 00:00:00+00,,-37.64625,145.041656,,AMBULANCE STATION-EPPING,GAVIC420204817,73 MCDONALDS ROAD,1,3076,EPPING,0,-37.6462495,145.0416539
144.316224,-36.703158,76,EMERGENCY FACILITY,"An emergency management facility from which a particular agency’s resources are commanded, coordinated and assigned to an incident or emergency",AMBULANCE STATION,EPSOM AMBULANCE STATION,OPERATIONAL,,EPSOM,VICTORIA,3551,HTTP://DATA.VIC.GOV.AU,,HTTP://DATA.VIC.GOV.AU,,,2018/06/06 00:00:00+00,,-36.703158,144.316224,,,GAVIC421561657,203 MIDLAND HIGHWAY,0,3551,EPSOM,0,-36.703158,144.3162239
144.9192398,-37.7563513,77,EMERGENCY FACILITY,"An emergency management facility from which a particular agency’s resources are commanded, coordinated and assigned to an incident or emergency",AMBULANCE STATION,MOONEE PONDS AMBULANCE STATION,OPERATIONAL,,ESSENDON,VICTORIA,3040,HTTP://DATA.VIC.GOV.AU,,HTTP://DATA.VIC.GOV.AU,,,2018/06/06 00:00:00+00,,-37.7563513,144.9192398,,,GAVIC420435827,2 WILLOW STREET,1,3040,ESSENDON,0,-37.75635125,144.91924
144.8989586,-37.71991334,78,EMERGENCY FACILITY,"An emergency management facility from which a particular agency’s resources are commanded, coordinated and assigned to an incident or emergency",AMBULANCE STATION,AIR AMB FIXED WING AMBULANCE STATION,OPERATIONAL,,ESSENDON FIELDS,VICTORIA,3041,HTTP://DATA.VIC.GOV.AU,,HTTP://DATA.VIC.GOV.AU,,,2018/06/06 00:00:00+00,,-37.71991334,144.8989586,,AMBULANCE SERVICE VICTORIA AND POLICE,GAVIC719425750,12 GLOBAL AVENUE,1,3041,ESSENDON FIELDS,74,-37.71970313,144.898158
144.898959,-37.719913,79,EMERGENCY FACILITY,"An emergency management facility from which a particular agency’s resources are commanded, coordinated and assigned to an incident or emergency",AMBULANCE STATION,AIR AMB AMBULANCE STATION,OPERATIONAL,,ESSENDON FIELDS,VICTORIA,3041,HTTP://DATA.VIC.GOV.AU,,HTTP://DATA.VIC.GOV.AU,,,2018/06/06 00:00:00+00,,-37.719913,144.898959,,AMBULANCE SERVICE VICTORIA AND POLICE,GAVIC719425750,12 GLOBAL AVENUE,1,3041,ESSENDON FIELDS,74,-37.71970313,144.898158
145.577699,-36.751831,80,EMERGENCY FACILITY,"An emergency management facility from which a particular agency’s resources are commanded, coordinated and assigned to an incident or emergency",AMBULANCE STATION,EUROA AMBULANCE STATION,OPERATIONAL,,EUROA,VICTORIA,3666,HTTP://DATA.VIC.GOV.AU,,HTTP://DATA.VIC.GOV.AU,,,2018/06/06 00:00:00+00,,-36.751831,145.577699,,,GAVIC419712392,35 TEMPLETON STREET,1,3666,EUROA,0,-36.75183175,145.5776995
145.016192,-37.886344,81,EMERGENCY FACILITY,"An emergency management facility from which a particular agency’s resources are commanded, coordinated and assigned to an incident or emergency",AMBULANCE STATION,CAULFIELD AMBULANCE STATION,OPERATIONAL,,CAULFIELD SOUTH,VICTORIA,3162,HTTP://DATA.VIC.GOV.AU,,HTTP://DATA.VIC.GOV.AU,,,2018/06/06 00:00:00+00,,-37.886344,145.016192,,,GAVIC420542202,638-642 GLEN HUNTLY ROAD,1,3162,CAULFIELD SOUTH,0,-37.886343,145.016192
143.3530447,-36.2685038,82,EMERGENCY FACILITY,"An emergency management facility from which a particular agency’s resources are commanded, coordinated and assigned to an incident or emergency",AMBULANCE STATION,CHARLTON AMBULANCE STATION,OPERATIONAL,,CHARLTON,VICTORIA,3525,HTTP://DATA.VIC.GOV.AU,,HTTP://DATA.VIC.GOV.AU,,,2018/06/06 00:00:00+00,,-36.2685038,143.3530447,,CHARLTON AMBULANCE,GAVIC719108255,2 LEARMONTH STREET,1,3525,CHARLTON,96,-36.26925928,143.3525145
145.1173898,-38.05615632,83,EMERGENCY FACILITY,"An emergency management facility from which a particular agency’s resources are commanded, coordinated and assigned to an incident or emergency",AMBULANCE STATION,CHELSEA AMBULANCE STATION,OPERATIONAL,,CHELSEA,VICTORIA,3196,HTTP://DATA.VIC.GOV.AU,,HTTP://DATA.VIC.GOV.AU,,,2018/06/06 00:00:00+00,,-38.05615632,145.1173898,,,GAVIC419799732,465-466 NEPEAN HIGHWAY,0,3196,CHELSEA,0,-38.056156,145.117389
145.055361,-37.961597,84,EMERGENCY FACILITY,"An emergency management facility from which a particular agency’s resources are commanded, coordinated and assigned to an incident or emergency",AMBULANCE STATION,BAYSIDE AMBULANCE STATION,OPERATIONAL,,CHELTENHAM,VICTORIA,3192,HTTP://DATA.VIC.GOV.AU,,HTTP://DATA.VIC.GOV.AU,,,2018/06/06 00:00:00+00,,-37.961597,145.055361,,,GAVIC419661927,1259 NEPEAN HIGHWAY,1,3192,CHELTENHAM,0,-37.961596,145.055361
145.6431377,-35.92047892,85,EMERGENCY FACILITY,"An emergency management facility from which a particular agency’s resources are commanded, coordinated and assigned to an incident or emergency",AMBULANCE STATION,COBRAM AMBULANCE STATION,OPERATIONAL,,COBRAM,VICTORIA,3644,HTTP://DATA.VIC.GOV.AU,,HTTP://DATA.VIC.GOV.AU,,,2018/06/06 00:00:00+00,,-35.92047892,145.6431377,,,GAVIC420994037,7 COLGAN STREET,1,3644,COBRAM,0,-35.92047921,145.6431374
144.958277,-37.754592,86,EMERGENCY FACILITY,"An emergency management facility from which a particular agency’s resources are commanded, coordinated and assigned to an incident or emergency",AMBULANCE STATION,MICA 1 AMBULANCE STATION,OPERATIONAL,,COBURG,VICTORIA,3058,HTTP://DATA.VIC.GOV.AU,,HTTP://DATA.VIC.GOV.AU,,,2018/06/06 00:00:00+00,,-37.754592,144.958277,,JOHN FAWKNER HOSPITAL,GAVIC420051718,275 MORELAND ROAD,2,3058,COBURG,0,-37.75459205,144.9582774
144.9743959,-37.72241211,87,EMERGENCY FACILITY,"An emergency management facility from which a particular agency’s resources are commanded, coordinated and assigned to an incident or emergency",AMBULANCE STATION,COBURG NORTH AMBULANCE STATION,OPERATIONAL,,COBURG NORTH,VICTORIA,3058,HTTP://DATA.VIC.GOV.AU,,HTTP://DATA.VIC.GOV.AU,,,2018/06/06 00:00:00+00,,-37.72241211,144.9743959,,,GAVIC425023657,3 MILKMAN WAY,1,3058,COBURG NORTH,0,-37.72241174,144.9743955
144.220335,-35.809971,88,EMERGENCY FACILITY,"An emergency management facility from which a particular agency’s resources are commanded, coordinated and assigned to an incident or emergency",AMBULANCE STATION,COHUNA AMBULANCE STATION,OPERATIONAL,,COHUNA,VICTORIA,3568,HTTP://DATA.VIC.GOV.AU,,HTTP://DATA.VIC.GOV.AU,,,2018/06/06 00:00:00+00,,-35.809971,144.220335,,,GAVIC411157133,29 KING EDWARD STREET,2,3568,COHUNA,0,-35.80997093,144.2203348
147.2772696,-36.8622812,89,EMERGENCY FACILITY,"An emergency management facility from which a particular agency’s resources are commanded, coordinated and assigned to an incident or emergency",AMBULANCE STATION,FALLS CREEK AMBULANCE STATION,OPERATIONAL,,FALLS CREEK,VICTORIA,3699,HTTP://DATA.VIC.GOV.AU,,HTTP://DATA.VIC.GOV.AU,,,2018/06/06 00:00:00+00,,-36.8622812,147.2772696,,MEDICAL CENTRE,GAVIC425668366,5 BOGONG HIGH PLAINS ROAD,1,3699,FALLS CREEK,13,-36.86233171,147.2773956
145.263771,-37.879046,90,EMERGENCY FACILITY,"An emergency management facility from which a particular agency’s resources are commanded, coordinated and assigned to an incident or emergency",AMBULANCE STATION,FERNTREE GULLY AMBULANCE STATION,OPERATIONAL,,FERNTREE GULLY,VICTORIA,3156,HTTP://DATA.VIC.GOV.AU,,HTTP://DATA.VIC.GOV.AU,,,2018/06/06 00:00:00+00,,-37.879046,145.263771,,,GAVIC421691165,6 DOBSON STREET,2,3156,FERNTREE GULLY,0,-37.879046,145.263771
145.2942949,-37.88319593,91,EMERGENCY FACILITY,"An emergency management facility from which a particular agency’s resources are commanded, coordinated and assigned to an incident or emergency",AMBULANCE STATION,FERNTREE GULLY CFA AMBULANCE STATION,OPERATIONAL,,FERNTREE GULLY,VICTORIA,3156,HTTP://DATA.VIC.GOV.AU,,HTTP://DATA.VIC.GOV.AU,,,2018/06/06 00:00:00+00,,-37.88319593,145.2942949,,,GAVIC422328063,5-7 THE AVENUE ,0,3156,FERNTREE GULLY,0,-37.88319565,145.2942946
144.97501,-37.80774453,92,EMERGENCY FACILITY,"An emergency management facility from which a particular agency’s resources are commanded, coordinated and assigned to an incident or emergency",AMBULANCE STATION,CENTRAL AMBULANCE STATION,OPERATIONAL,,FITZROY,VICTORIA,3065,HTTP://DATA.VIC.GOV.AU,,HTTP://DATA.VIC.GOV.AU,,,2018/06/06 00:00:00+00,,-37.80774453,144.97501,,ST VINCENTS HOSP,GAVIC421221014,55 VICTORIA PARADE,2,3065,FITZROY,101,-37.80703395,144.9757332
144.8957752,-37.7954403,93,EMERGENCY FACILITY,"An emergency management facility from which a particular agency’s resources are commanded, coordinated and assigned to an incident or emergency",AMBULANCE STATION,FOOTSCRAY AMBULANCE STATION,OPERATIONAL,,FOOTSCRAY,VICTORIA,3011,HTTP://DATA.VIC.GOV.AU,,HTTP://DATA.VIC.GOV.AU,,,2018/06/06 00:00:00+00,,-37.7954403,144.8957752,,,GAVIC420641455,UNIT 6 69 DROOP STREET,0,3011,FOOTSCRAY,0,-37.7954398,144.8957751
146.2025068,-38.65414491,94,EMERGENCY FACILITY,"An emergency management facility from which a particular agency’s resources are commanded, coordinated and assigned to an incident or emergency",AMBULANCE STATION,FOSTER AMBULANCE STATION,OPERATIONAL,,FOSTER,VICTORIA,3960,HTTP://DATA.VIC.GOV.AU,,HTTP://DATA.VIC.GOV.AU,,,2018/06/06 00:00:00+00,,-38.65414491,146.2025068,,,GAVIC420267755,37 STATION ROAD,2,3960,FOSTER,0,-38.65414483,146.2025064
145.131772,-38.152742,95,EMERGENCY FACILITY,"An emergency management facility from which a particular agency’s resources are commanded, coordinated and assigned to an incident or emergency",AMBULANCE STATION,MICA 6 AMBULANCE STATION,OPERATIONAL,,FRANKSTON,VICTORIA,3199,HTTP://DATA.VIC.GOV.AU,,HTTP://DATA.VIC.GOV.AU,,,2018/06/06 00:00:00+00,,-38.152742,145.131772,,MENS SHED,GAVIC421061821,16 HASTINGS ROAD,1,3199,FRANKSTON,0,-38.15274236,145.1317724
144.360772,-38.154008,96,EMERGENCY FACILITY,"An emergency management facility from which a particular agency’s resources are commanded, coordinated and assigned to an incident or emergency",AMBULANCE STATION,GEELONG AMBULANCE STATION,OPERATIONAL,,GEELONG,VICTORIA,3220,HTTP://DATA.VIC.GOV.AU,,HTTP://DATA.VIC.GOV.AU,,,2018/06/06 00:00:00+00,,-38.154008,144.360772,,,GAVIC420555735,167 YARRA STREET,1,3220,GEELONG,0,-38.1540085,144.3607723
144.585404,-37.485328,97,EMERGENCY FACILITY,"An emergency management facility from which a particular agency’s resources are commanded, coordinated and assigned to an incident or emergency",AMBULANCE STATION,GISBORNE AMBULANCE STATION,OPERATIONAL,,GISBORNE,VICTORIA,3437,HTTP://DATA.VIC.GOV.AU,,HTTP://DATA.VIC.GOV.AU,,,2018/06/06 00:00:00+00,,-37.485328,144.585404,,GISBORNE POLICE STATION,GAVIC421841520,35-41 ROBERTSON STREET,0,3437,GISBORNE,22,-37.48536522,144.5856442
142.548003,-37.637581,98,EMERGENCY FACILITY,"An emergency management facility from which a particular agency’s resources are commanded, coordinated and assigned to an incident or emergency",AMBULANCE STATION,GLENTHOMPSON AMBULANCE STATION,OPERATIONAL,,GLENTHOMPSON,VICTORIA,3293,HTTP://DATA.VIC.GOV.AU,,HTTP://DATA.VIC.GOV.AU,,,2018/06/06 00:00:00+00,,-37.637581,142.548003,,,GAVIC424585355,7 MCLENNAN STREET,1,3293,GLENTHOMPSON,0,-37.63758111,142.5480039
141.483334,-36.715167,99,EMERGENCY FACILITY,"An emergency management facility from which a particular agency’s resources are commanded, coordinated and assigned to an incident or emergency",AMBULANCE STATION,GOROKE AMBULANCE STATION,OPERATIONAL,,GOROKE,VICTORIA,3412,HTTP://DATA.VIC.GOV.AU,,HTTP://DATA.VIC.GOV.AU,,,2018/06/06 00:00:00+00,,-36.715167,141.483334,,GOROKE COMMUNITY HEALTH CENTRE,GAVIC423973356,54-62 NATIMUK-FRANCES ROAD,1,3412,GOROKE,0,-36.71516672,141.4833364
145.52916,-38.407458,100,EMERGENCY FACILITY,"An emergency management facility from which a particular agency’s resources are commanded, coordinated and assigned to an incident or emergency",AMBULANCE STATION,GRANTVILLE AMBULANCE STATION,OPERATIONAL,,GRANTVILLE,VICTORIA,3984,HTTP://DATA.VIC.GOV.AU,,HTTP://DATA.VIC.GOV.AU,,,2018/06/06 00:00:00+00,,-38.407458,145.52916,,,GAVIC424761344,8 PIER ROAD,0,3984,GRANTVILLE,18,-38.40731399,145.5292564
142.5188627,-37.13670501,101,EMERGENCY FACILITY,"An emergency management facility from which a particular agency’s resources are commanded, coordinated and assigned to an incident or emergency",AMBULANCE STATION,HALLS GAP AMBULANCE STATION,OPERATIONAL,,HALLS GAP,VICTORIA,3381,HTTP://DATA.VIC.GOV.AU,,HTTP://DATA.VIC.GOV.AU,,,2018/06/06 00:00:00+00,,-37.136705,142.5188627,,,GAVIC424493095,78 GRAMPIANS ROAD,0,3381,HALLS GAP,0,-37.13670503,142.5188623
142.032261,-37.737579,102,EMERGENCY FACILITY,"An emergency management facility from which a particular agency’s resources are commanded, coordinated and assigned to an incident or emergency",AMBULANCE STATION,HAMILTON AMBULANCE STATION,OPERATIONAL,,HAMILTON,VICTORIA,3300,HTTP://DATA.VIC.GOV.AU,,HTTP://DATA.VIC.GOV.AU,,,2018/06/06 00:00:00+00,,-37.737579,142.032261,,RURAL AMBULANCE VICTORIA,GAVIC424613908,59 CLARENDON STREET,0,3300,HAMILTON,0,-37.73757893,142.0322609
145.2592943,-38.03126363,103,EMERGENCY FACILITY,"An emergency management facility from which a particular agency’s resources are commanded, coordinated and assigned to an incident or emergency",AMBULANCE STATION,HAMPTON PARK AMBULANCE STATION,OPERATIONAL,,HAMPTON PARK,VICTORIA,3976,HTTP://DATA.VIC.GOV.AU,,HTTP://DATA.VIC.GOV.AU,,,2018/06/06 00:00:00+00,,-38.03126363,145.2592943,,,GAVIC411508937,120 SOMERVILLE ROAD,1,3976,HAMPTON PARK,0,-38.03126344,145.2592943
145.18459,-38.307014,104,EMERGENCY FACILITY,"An emergency management facility from which a particular agency’s resources are commanded, coordinated and assigned to an incident or emergency",AMBULANCE STATION,HASTINGS AMBULANCE STATION,OPERATIONAL,,HASTINGS,VICTORIA,3915,HTTP://DATA.VIC.GOV.AU,,HTTP://DATA.VIC.GOV.AU,,,2018/06/06 00:00:00+00,,-38.307014,145.18459,,,GAVIC421653183,7 GLENDALE AVENUE,0,3915,HASTINGS,7,-38.3069973,145.1845126
147.9856223,-37.87968995,105,EMERGENCY FACILITY,"An emergency management facility from which a particular agency’s resources are commanded, coordinated and assigned to an incident or emergency",AMBULANCE STATION,LAKES ENTRANCE AMBULANCE STATION,OPERATIONAL,,LAKES ENTRANCE,VICTORIA,3909,HTTP://DATA.VIC.GOV.AU,,HTTP://DATA.VIC.GOV.AU,,,2018/06/06 00:00:00+00,,-37.87968995,147.9856223,,,GAVIC420664479,19 MECHANICS STREET,2,3909,LAKES ENTRANCE,10,-37.87960286,147.9856658
145.190646,-38.152985,106,EMERGENCY FACILITY,"An emergency management facility from which a particular agency’s resources are commanded, coordinated and assigned to an incident or emergency",AMBULANCE STATION,LANGWARRIN AMBULANCE STATION,OPERATIONAL,,LANGWARRIN,VICTORIA,3910,HTTP://DATA.VIC.GOV.AU,,HTTP://DATA.VIC.GOV.AU,,,2018/06/06 00:00:00+00,,-38.152985,145.190646,,,GAVIC421299167,1 WARRANDYTE ROAD,2,3910,LANGWARRIN,0,-38.152984,145.190645
144.4142612,-38.02106648,107,EMERGENCY FACILITY,"An emergency management facility from which a particular agency’s resources are commanded, coordinated and assigned to an incident or emergency",AMBULANCE STATION,LARA AMBULANCE STATION,OPERATIONAL,,LARA,VICTORIA,3212,HTTP://DATA.VIC.GOV.AU,,HTTP://DATA.VIC.GOV.AU,,,2018/06/06 00:00:00+00,,-38.02106648,144.4142612,,,GAVIC424555012,23 MILL ROAD,1,3212,LARA,17,-38.0210238,144.4140778
144.8018656,-37.82073319,108,EMERGENCY FACILITY,"An emergency management facility from which a particular agency’s resources are commanded, coordinated and assigned to an incident or emergency",AMBULANCE STATION,WEST SRC AMBULANCE STATION,OPERATIONAL,,LAVERTON NORTH,VICTORIA,3026,HTTP://DATA.VIC.GOV.AU,,HTTP://DATA.VIC.GOV.AU,,,2018/06/06 00:00:00+00,,-37.82073319,144.8018656,,,GAVIC424348924,24 AGOSTA DRIVE,1,3026,LAVERTON NORTH,0,-37.82073313,144.8018655
145.95106,-38.477523,109,EMERGENCY FACILITY,"An emergency management facility from which a particular agency’s resources are commanded, coordinated and assigned to an incident or emergency",AMBULANCE STATION,LEONGATHA AMBULANCE STATION,OPERATIONAL,,LEONGATHA,VICTORIA,3953,HTTP://DATA.VIC.GOV.AU,,HTTP://DATA.VIC.GOV.AU,,,2018/06/06 00:00:00+00,,-38.477523,145.95106,,,GAVIC424469694,13 JEFFREY STREET,1,3953,LEONGATHA,0,-38.47752309,145.95106
144.4699691,-38.19078965,110,EMERGENCY FACILITY,"An emergency management facility from which a particular agency’s resources are commanded, coordinated and assigned to an incident or emergency",AMBULANCE STATION,LEOPOLD AMBULANCE STATION,OPERATIONAL,,LEOPOLD,VICTORIA,3224,HTTP://DATA.VIC.GOV.AU,,HTTP://DATA.VIC.GOV.AU,,,2018/06/06 00:00:00+00,,-38.19078965,144.4699691,,,GAVIC425730019,802-804 BELLARINE HIGHWAY,1,3224,LEOPOLD,13,-38.19082404,144.470109
145.355314,-37.758164,111,EMERGENCY FACILITY,"An emergency management facility from which a particular agency’s resources are commanded, coordinated and assigned to an incident or emergency",AMBULANCE STATION,LILYDALE AMBULANCE STATION,OPERATIONAL,,LILYDALE,VICTORIA,3140,HTTP://DATA.VIC.GOV.AU,,HTTP://DATA.VIC.GOV.AU,,,2018/06/06 00:00:00+00,,-37.758164,145.355314,,,GAVIC419873942,1 PINE STREET,1,3140,LILYDALE,0,-37.758163,145.355313
143.337577,-37.953237,112,EMERGENCY FACILITY,"An emergency management facility from which a particular agency’s resources are commanded, coordinated and assigned to an incident or emergency",AMBULANCE STATION,LISMORE AMBULANCE STATION,OPERATIONAL,,LISMORE,VICTORIA,3324,HTTP://DATA.VIC.GOV.AU,,HTTP://DATA.VIC.GOV.AU,,,2018/06/06 00:00:00+00,,-37.953237,143.337577,,,GAVIC414219447,15 WEST STREET,1,3324,LISMORE,11,-37.95321426,143.3376928
147.5928793,-38.03964717,113,EMERGENCY FACILITY,"An emergency management facility from which a particular agency’s resources are commanded, coordinated and assigned to an incident or emergency",AMBULANCE STATION,LOCH SPORT AMBULANCE STATION,OPERATIONAL,,LOCH SPORT,VICTORIA,3851,HTTP://DATA.VIC.GOV.AU,,HTTP://DATA.VIC.GOV.AU,,,2018/06/06 00:00:00+00,,-38.03964717,147.5928793,,,GAVIC422312475,105 NATIONAL PARK ROAD,0,3851,LOCH SPORT,91,-38.04034529,147.5923447
143.973702,-38.540485,114,EMERGENCY FACILITY,"An emergency management facility from which a particular agency’s resources are commanded, coordinated and assigned to an incident or emergency",AMBULANCE STATION,LORNE AMBULANCE STATION,OPERATIONAL,,LORNE,VICTORIA,3232,HTTP://DATA.VIC.GOV.AU,,HTTP://DATA.VIC.GOV.AU,,,2018/06/06 00:00:00+00,,-38.540485,143.973702,,,GAVIC423895848,40-42 SMITH STREET,0,3232,LORNE,14,-38.54058951,143.9736134
146.9803323,-37.97077469,115,EMERGENCY FACILITY,"An emergency management facility from which a particular agency’s resources are commanded, coordinated and assigned to an incident or emergency",AMBULANCE STATION,MAFFRA AMBULANCE STATION,OPERATIONAL,,MAFFRA,VICTORIA,3860,HTTP://DATA.VIC.GOV.AU,,HTTP://DATA.VIC.GOV.AU,,,2018/06/06 00:00:00+00,,-37.97077469,146.9803323,,,GAVIC425743136,20-22 STATION STREET,1,3860,MAFFRA,3,-37.97078729,146.9803033
149.7552268,-37.56032723,116,EMERGENCY FACILITY,"An emergency management facility from which a particular agency’s resources are commanded, coordinated and assigned to an incident or emergency",AMBULANCE STATION,MALLACOOTA AMBULANCE STATION,OPERATIONAL,,MALLACOOTA,VICTORIA,3892,HTTP://DATA.VIC.GOV.AU,,HTTP://DATA.VIC.GOV.AU,,,2018/06/06 00:00:00+00,,-37.56032723,149.7552268,,,GAVIC421771152,82 BETKA ROAD,1,3892,MALLACOOTA,0,-37.56032809,149.7552272
145.033395,-37.862859,117,EMERGENCY FACILITY,"An emergency management facility from which a particular agency’s resources are commanded, coordinated and assigned to an incident or emergency",AMBULANCE STATION,CABRINI HOSP AMBULANCE STATION,OPERATIONAL,,MALVERN,VICTORIA,3144,HTTP://DATA.VIC.GOV.AU,,HTTP://DATA.VIC.GOV.AU,,,2018/06/06 00:00:00+00,,-37.862859,145.033395,,CABRINI HOSPITAL,GAVIC413580673,183 WATTLETREE ROAD,2,3144,MALVERN,29,-37.86282776,145.0330689
142.8821354,-35.05517623,118,EMERGENCY FACILITY,"An emergency management facility from which a particular agency’s resources are commanded, coordinated and assigned to an incident or emergency",AMBULANCE STATION,MANANGATANG AMBULANCE STATION,OPERATIONAL,,MANANGATANG,VICTORIA,3546,HTTP://DATA.VIC.GOV.AU,,HTTP://DATA.VIC.GOV.AU,,,2018/06/06 00:00:00+00,,-35.05517623,142.8821354,,,GAVIC420600656,7 LARUNDEL STREET,1,3546,MANANGATANG,0,-35.0551764,142.8821352
146.086865,-37.053074,119,EMERGENCY FACILITY,"An emergency management facility from which a particular agency’s resources are commanded, coordinated and assigned to an incident or emergency",AMBULANCE STATION,MANSFIELD AMBULANCE STATION,OPERATIONAL,,MANSFIELD,VICTORIA,3722,HTTP://DATA.VIC.GOV.AU,,HTTP://DATA.VIC.GOV.AU,,,2018/06/06 00:00:00+00,,-37.053074,146.086865,,,GAVIC421511283,3 CURIA STREET,2,3722,MANSFIELD,0,-37.05307355,146.0868653
143.737615,-37.044023,120,EMERGENCY FACILITY,"An emergency management facility from which a particular agency’s resources are commanded, coordinated and assigned to an incident or emergency",AMBULANCE STATION,MARYBOROUGH AMBULANCE STATION,OPERATIONAL,,MARYBOROUGH,VICTORIA,3465,HTTP://DATA.VIC.GOV.AU,,HTTP://DATA.VIC.GOV.AU,,,2018/06/06 00:00:00+00,,-37.044023,143.737615,,,GAVIC411797878,9 NIGHTINGALE STREET,2,3465,MARYBOROUGH,0,-37.04402295,143.7376148
145.740774,-37.510137,121,EMERGENCY FACILITY,"An emergency management facility from which a particular agency’s resources are commanded, coordinated and assigned to an incident or emergency",AMBULANCE STATION,MARYSVILLE AMBULANCE STATION,OPERATIONAL,,MARYSVILLE,VICTORIA,3779,HTTP://DATA.VIC.GOV.AU,,HTTP://DATA.VIC.GOV.AU,,,2018/06/06 00:00:00+00,,-37.510137,145.740774,,,GAVIC423963543,11 BARTON AVENUE,1,3779,MARYSVILLE,0,-37.51013689,145.7407747
144.9560616,-37.79934757,122,EMERGENCY FACILITY,"An emergency management facility from which a particular agency’s resources are commanded, coordinated and assigned to an incident or emergency",AMBULANCE STATION,ROYAL MELBOURNE AMBULANCE STATION,OPERATIONAL,,MELBOURNE,VICTORIA,3050,HTTP://DATA.VIC.GOV.AU,,HTTP://DATA.VIC.GOV.AU,,,2018/06/06 00:00:00+00,,-37.79934757,144.9560616,,ROYAL MELBOURNE HOSPITAL,GAVIC425100453,300 GRATTAN STREET,0,3052,PARKVILLE,0,-37.79934734,144.9560628
144.850224,-37.67673269,123,EMERGENCY FACILITY,"An emergency management facility from which a particular agency’s resources are commanded, coordinated and assigned to an incident or emergency",AMBULANCE STATION,MELBOURNE AIRPORT AMBULANCE STATION,OPERATIONAL,,MELBOURNE AIRPORT,VICTORIA,3045,HTTP://DATA.VIC.GOV.AU,,HTTP://DATA.VIC.GOV.AU,,,2018/06/06 00:00:00+00,,-37.67673269,144.850224,,AUSTRALIAN FEDERAL POLICE,GAVIC719107135,2 FRANCIS BRIGGS DRIVE,0,3045,MELBOURNE AIRPORT,56,-37.67673645,144.8508612
144.580131,-37.684531,124,EMERGENCY FACILITY,"An emergency management facility from which a particular agency’s resources are commanded, coordinated and assigned to an incident or emergency",AMBULANCE STATION,MELTON AMBULANCE STATION,OPERATIONAL,,MELTON,VICTORIA,3337,HTTP://DATA.VIC.GOV.AU,,HTTP://DATA.VIC.GOV.AU,,,2018/06/06 00:00:00+00,,-37.684531,144.580131,,,GAVIC420188030,134-136 MCKENZIE STREET,2,3337,MELTON,0,-37.684531,144.580131
142.1525799,-34.1929241,125,EMERGENCY FACILITY,"An emergency management facility from which a particular agency’s resources are commanded, coordinated and assigned to an incident or emergency",AMBULANCE STATION,MILDURA AMBULANCE STATION,OPERATIONAL,,MILDURA,VICTORIA,3500,HTTP://DATA.VIC.GOV.AU,,HTTP://DATA.VIC.GOV.AU,,,2018/06/06 00:00:00+00,,-34.1929241,142.1525799,,,GAVIC423628698,223-225 DEAKIN AVENUE,1,3500,MILDURA,0,-34.19292405,142.1525804
146.16185,-38.402506,126,EMERGENCY FACILITY,"An emergency management facility from which a particular agency’s resources are commanded, coordinated and assigned to an incident or emergency",AMBULANCE STATION,MIRBOO NORTH AMBULANCE STATION,OPERATIONAL,,MIRBOO NORTH,VICTORIA,3871,HTTP://DATA.VIC.GOV.AU,,HTTP://DATA.VIC.GOV.AU,,,2018/06/06 00:00:00+00,,-38.402506,146.16185,,,GAVIC425615093,4 GRAND RIDGE EAST ,0,3871,MIRBOO NORTH,0,-38.40250655,146.1618506
147.3781693,-36.53712586,127,EMERGENCY FACILITY,"An emergency management facility from which a particular agency’s resources are commanded, coordinated and assigned to an incident or emergency",AMBULANCE STATION,MITTA MITTA AMBULANCE STATION,OPERATIONAL,,MITTA MITTA,VICTORIA,3701,HTTP://DATA.VIC.GOV.AU,,HTTP://DATA.VIC.GOV.AU,,,2018/06/06 00:00:00+00,,-36.53712586,147.3781693,,,GAVIC422179227,5556 OMEO HIGHWAY,1,3701,MITTA MITTA,0,-36.53712616,147.3781693
146.261221,-38.180211,128,EMERGENCY FACILITY,"An emergency management facility from which a particular agency’s resources are commanded, coordinated and assigned to an incident or emergency",AMBULANCE STATION,MOE AMBULANCE STATION,OPERATIONAL,,MOE,VICTORIA,3825,HTTP://DATA.VIC.GOV.AU,,HTTP://DATA.VIC.GOV.AU,,,2018/06/06 00:00:00+00,,-38.180211,146.261221,,,GAVIC421602897,42-44 FOWLER STREET,1,3825,MOE,0,-38.18021089,146.2612209
145.124083,-37.725377,129,EMERGENCY FACILITY,"An emergency management facility from which a particular agency’s resources are commanded, coordinated and assigned to an incident or emergency",AMBULANCE STATION,ELTHAM AMBULANCE STATION,OPERATIONAL,,MONTMORENCY,VICTORIA,3094,HTTP://DATA.VIC.GOV.AU,,HTTP://DATA.VIC.GOV.AU,,,2018/06/06 00:00:00+00,,-37.725377,145.124083,,,GAVIC421603347,1 GRAND BOULEVARD,2,3094,MONTMORENCY,0,-37.72537728,145.124083
145.0644807,-37.93801344,130,EMERGENCY FACILITY,"An emergency management facility from which a particular agency’s resources are commanded, coordinated and assigned to an incident or emergency",AMBULANCE STATION,MICA 10 AMBULANCE STATION,OPERATIONAL,,MOORABBIN,VICTORIA,3189,HTTP://DATA.VIC.GOV.AU,,HTTP://DATA.VIC.GOV.AU,,,2018/06/06 00:00:00+00,,-37.93801344,145.0644807,,,GAVIC424546316,UNIT 1 20-26 SULLIVAN STREET,1,3189,MOORABBIN,0,-37.93801355,145.0644806
145.3511173,-36.37906077,131,EMERGENCY FACILITY,"An emergency management facility from which a particular agency’s resources are commanded, coordinated and assigned to an incident or emergency",AMBULANCE STATION,MOOROOPNA AMBULANCE STATION,OPERATIONAL,,MOOROOPNA,VICTORIA,3629,HTTP://DATA.VIC.GOV.AU,,HTTP://DATA.VIC.GOV.AU,,,2018/06/06 00:00:00+00,,-36.37906076,145.3511173,,,GAVIC423704662,172 ECHUCA ROAD,1,3629,MOOROOPNA,0,-36.3790604,145.351117
145.1021019,-37.98721896,132,EMERGENCY FACILITY,"An emergency management facility from which a particular agency’s resources are commanded, coordinated and assigned to an incident or emergency",AMBULANCE STATION,MORDIALLOC AMBULANCE STATION,OPERATIONAL,,MORDIALLOC,VICTORIA,3195,HTTP://DATA.VIC.GOV.AU,,HTTP://DATA.VIC.GOV.AU,,,2018/06/06 00:00:00+00,,-37.98721896,145.1021019,,,GAVIC719418940,17 SIBTHORPE STREET,0,3195,MORDIALLOC,2,-37.98721615,145.1020765
145.043818,-38.227624,133,EMERGENCY FACILITY,"An emergency management facility from which a particular agency’s resources are commanded, coordinated and assigned to an incident or emergency",AMBULANCE STATION,MORNINGTON AMBULANCE STATION,OPERATIONAL,,MORNINGTON,VICTORIA,3931,HTTP://DATA.VIC.GOV.AU,,HTTP://DATA.VIC.GOV.AU,,,2018/06/06 00:00:00+00,,-38.227624,145.043818,,,GAVIC420191709,348 MAIN STREET,1,3931,MORNINGTON,0,-38.227624,145.043817
142.808196,-38.082024,134,EMERGENCY FACILITY,"An emergency management facility from which a particular agency’s resources are commanded, coordinated and assigned to an incident or emergency",AMBULANCE STATION,MORTLAKE AMBULANCE STATION,OPERATIONAL,,MORTLAKE,VICTORIA,3272,HTTP://DATA.VIC.GOV.AU,,HTTP://DATA.VIC.GOV.AU,,,2018/06/06 00:00:00+00,,-38.082024,142.808196,,,GAVIC424915840,2 PARK STREET,0,3272,MORTLAKE,5,-38.08202258,142.8081444
146.469835,-38.21333265,135,EMERGENCY FACILITY,"An emergency management facility from which a particular agency’s resources are commanded, coordinated and assigned to an incident or emergency",AMBULANCE STATION,HEMS2 AMBULANCE STATION,OPERATIONAL,,MORWELL,VICTORIA,3840,HTTP://DATA.VIC.GOV.AU,,HTTP://DATA.VIC.GOV.AU,,,2018/06/06 00:00:00+00,,-38.21333265,146.469835,,,GAVIC720132179,97 VILLAGE AVENUE,0,3840,MORWELL,52,-38.21311906,146.4703649
146.40621,-38.235695,136,EMERGENCY FACILITY,"An emergency management facility from which a particular agency’s resources are commanded, coordinated and assigned to an incident or emergency",AMBULANCE STATION,MORWELL AMBULANCE STATION,OPERATIONAL,,MORWELL,VICTORIA,3840,HTTP://DATA.VIC.GOV.AU,,HTTP://DATA.VIC.GOV.AU,,,2018/06/06 00:00:00+00,,-38.235695,146.40621,,,GAVIC423225273,26-28A MCDONALD STREET,0,3840,MORWELL,0,-38.23569481,146.4062106
147.142087,-36.983075,137,EMERGENCY FACILITY,"An emergency management facility from which a particular agency’s resources are commanded, coordinated and assigned to an incident or emergency",AMBULANCE STATION,MOUNT HOTHAM AMBULANCE STATION,OPERATIONAL,,HOTHAM HEIGHTS,VICTORIA,3741,HTTP://DATA.VIC.GOV.AU,,HTTP://DATA.VIC.GOV.AU,,,2018/06/06 00:00:00+00,,-36.983075,147.142087,,,GAVIC425679674,2 LAWLERS CAR PARK ROAD,0,3741,HOTHAM HEIGHTS,41,-36.98344096,147.142129
143.8725628,-36.5722699,138,EMERGENCY FACILITY,"An emergency management facility from which a particular agency’s resources are commanded, coordinated and assigned to an incident or emergency",AMBULANCE STATION,INGLEWOOD AMBULANCE STATION,OPERATIONAL,,INGLEWOOD,VICTORIA,3517,HTTP://DATA.VIC.GOV.AU,,HTTP://DATA.VIC.GOV.AU,,,2018/06/06 00:00:00+00,,-36.5722699,143.8725628,,,GAVIC425181285,4 HOSPITAL STREET,2,3517,INGLEWOOD,12,-36.57216229,143.8725701
142.169403,-34.233901,139,EMERGENCY FACILITY,"An emergency management facility from which a particular agency’s resources are commanded, coordinated and assigned to an incident or emergency",AMBULANCE STATION,IRYMPLE AMBULANCE STATION,OPERATIONAL,,IRYMPLE,VICTORIA,3498,HTTP://DATA.VIC.GOV.AU,,HTTP://DATA.VIC.GOV.AU,,,2018/06/06 00:00:00+00,,-34.233901,142.169403,,,GAVIC414343260,2117 FIFTEENTH STREET,1,3498,IRYMPLE,0,-34.23390093,142.1694028
145.037873,-37.757378,140,EMERGENCY FACILITY,"An emergency management facility from which a particular agency’s resources are commanded, coordinated and assigned to an incident or emergency",AMBULANCE STATION,MICA 4 AMBULANCE STATION,OPERATIONAL,,IVANHOE,VICTORIA,3079,HTTP://DATA.VIC.GOV.AU,,HTTP://DATA.VIC.GOV.AU,,,2018/06/06 00:00:00+00,,-37.757378,145.037873,,,GAVIC420482090,88 ORIEL ROAD,2,3079,IVANHOE,0,-37.757377,145.037872
144.2444714,-36.79884573,141,EMERGENCY FACILITY,"An emergency management facility from which a particular agency’s resources are commanded, coordinated and assigned to an incident or emergency",AMBULANCE STATION,KANGAROO FLAT AMBULANCE STATION,OPERATIONAL,,KANGAROO FLAT,VICTORIA,3555,HTTP://DATA.VIC.GOV.AU,,HTTP://DATA.VIC.GOV.AU,,,2018/06/06 00:00:00+00,,-36.79884573,144.2444714,,,GAVIC419696659,22-26 VIEW STREET,1,3555,KANGAROO FLAT,0,-36.79884539,144.2444715
141.241976,-36.379668,142,EMERGENCY FACILITY,"An emergency management facility from which a particular agency’s resources are commanded, coordinated and assigned to an incident or emergency",AMBULANCE STATION,KANIVA AMBULANCE STATION,OPERATIONAL,,KANIVA,VICTORIA,3419,HTTP://DATA.VIC.GOV.AU,,HTTP://DATA.VIC.GOV.AU,,,2018/06/06 00:00:00+00,,-36.379668,141.241976,,,GAVIC425283234,50 PHILLIPS STREET,0,3419,KANIVA,3,-36.37969459,141.2419682
144.825742,-37.740991,143,EMERGENCY FACILITY,"An emergency management facility from which a particular agency’s resources are commanded, coordinated and assigned to an incident or emergency",AMBULANCE STATION,ST ALBANS AMBULANCE STATION,OPERATIONAL,,KEALBA,VICTORIA,3021,HTTP://DATA.VIC.GOV.AU,,HTTP://DATA.VIC.GOV.AU,,,2018/06/06 00:00:00+00,,-37.740991,144.825742,,,GAVIC421366594,3 MALCOLM COURT,1,3021,KEALBA,0,-37.740991,144.825741
144.303101,-36.777057,144,EMERGENCY FACILITY,"An emergency management facility from which a particular agency’s resources are commanded, coordinated and assigned to an incident or emergency",AMBULANCE STATION,STRATHDALE AMBULANCE STATION,OPERATIONAL,,KENNINGTON,VICTORIA,3550,HTTP://DATA.VIC.GOV.AU,,HTTP://DATA.VIC.GOV.AU,,,2018/06/06 00:00:00+00,,-36.777057,144.303101,,,GAVIC420619769,131 EDWARDS ROAD,2,3550,KENNINGTON,19,-36.77722688,144.3030968
147.1749959,-36.73586576,145,EMERGENCY FACILITY,"An emergency management facility from which a particular agency’s resources are commanded, coordinated and assigned to an incident or emergency",AMBULANCE STATION,MOUNT BEAUTY AMBULANCE STATION,OPERATIONAL,,MOUNT BEAUTY,VICTORIA,3699,HTTP://DATA.VIC.GOV.AU,,HTTP://DATA.VIC.GOV.AU,,,2018/06/06 00:00:00+00,,-36.73586576,147.1749959,,,GAVIC425015413,36 EMBANKMENT DRIVE,0,3699,MOUNT BEAUTY,0,-36.73586539,147.1749955
146.445322,-37.146144,146,EMERGENCY FACILITY,"An emergency management facility from which a particular agency’s resources are commanded, coordinated and assigned to an incident or emergency",AMBULANCE STATION,MOUNT BULLER AMBULANCE STATION,OPERATIONAL,,MOUNT BULLER,VICTORIA,3723,HTTP://DATA.VIC.GOV.AU,,HTTP://DATA.VIC.GOV.AU,,,2018/06/06 00:00:00+00,,-37.146144,146.445322,,MEDICAL CENTRE,GAVIC425365664,40 SUMMIT ROAD,1,3723,MOUNT BULLER,7,-37.1460872,146.445342
145.0380161,-38.24497283,147,EMERGENCY FACILITY,"An emergency management facility from which a particular agency’s resources are commanded, coordinated and assigned to an incident or emergency",AMBULANCE STATION,MOUNT MARTHA AMBULANCE STATION,OPERATIONAL,,MOUNT MARTHA,VICTORIA,3934,HTTP://DATA.VIC.GOV.AU,,HTTP://DATA.VIC.GOV.AU,,,2018/06/06 00:00:00+00,,-38.24497283,145.0380161,,,GAVIC411955715,62 BENTONS ROAD,0,3934,MOUNT MARTHA,0,-38.244972,145.038016
145.117831,-37.883408,148,EMERGENCY FACILITY,"An emergency management facility from which a particular agency’s resources are commanded, coordinated and assigned to an incident or emergency",AMBULANCE STATION,WAVERLEY AMBULANCE STATION,OPERATIONAL,,MOUNT WAVERLEY,VICTORIA,3149,HTTP://DATA.VIC.GOV.AU,,HTTP://DATA.VIC.GOV.AU,,,2018/06/06 00:00:00+00,,-37.883408,145.117831,,,GAVIC413576480,245 WAVERLEY ROAD,0,3149,MOUNT WAVERLEY,0,-37.883408,145.11783
145.218638,-36.61977,149,EMERGENCY FACILITY,"An emergency management facility from which a particular agency’s resources are commanded, coordinated and assigned to an incident or emergency",AMBULANCE STATION,MURCHISON AMBULANCE STATION,OPERATIONAL,,MURCHISON,VICTORIA,3610,HTTP://DATA.VIC.GOV.AU,,HTTP://DATA.VIC.GOV.AU,,,2018/06/06 00:00:00+00,,-36.61977,145.218638,,,GAVIC422201518,33 WATSON STREET,0,3610,MURCHISON,0,-36.6197704,145.2186383
141.1812476,-35.26273625,150,EMERGENCY FACILITY,"An emergency management facility from which a particular agency’s resources are commanded, coordinated and assigned to an incident or emergency",AMBULANCE STATION,MURRAYVILLE AMBULANCE STATION,OPERATIONAL,,MURRAYVILLE,VICTORIA,3512,HTTP://DATA.VIC.GOV.AU,,HTTP://DATA.VIC.GOV.AU,,,2018/06/06 00:00:00+00,,-35.26273625,141.1812476,,,GAVIC414381667,28-32 GRAY STREET,1,3512,MURRAYVILLE,0,-35.26273658,141.1812474
146.72889,-36.5604989,151,EMERGENCY FACILITY,"An emergency management facility from which a particular agency’s resources are commanded, coordinated and assigned to an incident or emergency",AMBULANCE STATION,MYRTLEFORD AMBULANCE STATION,OPERATIONAL,,MYRTLEFORD,VICTORIA,3737,HTTP://DATA.VIC.GOV.AU,,HTTP://DATA.VIC.GOV.AU,,,2018/06/06 00:00:00+00,,-36.5604989,146.72889,,,GAVIC420160757,19 ROBERTSON STREET,1,3737,MYRTLEFORD,0,-36.560499,146.72889
145.1545528,-36.78724034,152,EMERGENCY FACILITY,"An emergency management facility from which a particular agency’s resources are commanded, coordinated and assigned to an incident or emergency",AMBULANCE STATION,NAGAMBIE AMBULANCE STATION,OPERATIONAL,,NAGAMBIE,VICTORIA,3608,HTTP://DATA.VIC.GOV.AU,,HTTP://DATA.VIC.GOV.AU,,,2018/06/06 00:00:00+00,,-36.78724034,145.1545528,,,GAVIC420578331,11-13 GOULBURN STREET,1,3608,NAGAMBIE,0,-36.78723999,145.1545533
143.9188958,-35.72447309,153,EMERGENCY FACILITY,"An emergency management facility from which a particular agency’s resources are commanded, coordinated and assigned to an incident or emergency",AMBULANCE STATION,KERANG AMBULANCE STATION,OPERATIONAL,,KERANG,VICTORIA,3579,HTTP://DATA.VIC.GOV.AU,,HTTP://DATA.VIC.GOV.AU,,,2018/06/06 00:00:00+00,,-35.72447309,143.9188958,,,GAVIC719117444,5 BURGOYNE STREET,0,3579,KERANG,46,-35.72447769,143.9183909
145.053378,-37.809283,154,EMERGENCY FACILITY,"An emergency management facility from which a particular agency’s resources are commanded, coordinated and assigned to an incident or emergency",AMBULANCE STATION,KEW AMBULANCE STATION,OPERATIONAL,,KEW,VICTORIA,3101,HTTP://DATA.VIC.GOV.AU,,HTTP://DATA.VIC.GOV.AU,,,2018/06/06 00:00:00+00,,-37.809283,145.053378,,ST GEORGES HOSPITAL,GAVIC420445245,283 COTHAM ROAD,2,3101,KEW,0,-37.8092826,145.0533784
144.9519705,-37.29835028,155,EMERGENCY FACILITY,"An emergency management facility from which a particular agency’s resources are commanded, coordinated and assigned to an incident or emergency",AMBULANCE STATION,KILMORE AMBULANCE STATION,OPERATIONAL,,KILMORE,VICTORIA,3764,HTTP://DATA.VIC.GOV.AU,,HTTP://DATA.VIC.GOV.AU,,,2018/06/06 00:00:00+00,,-37.29835028,144.9519705,,,GAVIC420872501,24 POWLETT STREET,1,3764,KILMORE,0,-37.29834973,144.9519706
145.314696,-37.818264,156,EMERGENCY FACILITY,"An emergency management facility from which a particular agency’s resources are commanded, coordinated and assigned to an incident or emergency",AMBULANCE STATION,MONTROSE AMBULANCE STATION,OPERATIONAL,,KILSYTH,VICTORIA,3137,HTTP://DATA.VIC.GOV.AU,,HTTP://DATA.VIC.GOV.AU,,,2018/06/06 00:00:00+00,,-37.818264,145.314696,,,GAVIC413508027,125 CANTERBURY ROAD,1,3137,KILSYTH,0,-37.81826408,145.3146957
145.338446,-37.5297037,157,EMERGENCY FACILITY,"An emergency management facility from which a particular agency’s resources are commanded, coordinated and assigned to an incident or emergency",AMBULANCE STATION,KINGLAKE AMBULANCE STATION,OPERATIONAL,,KINGLAKE,VICTORIA,3763,HTTP://DATA.VIC.GOV.AU,,HTTP://DATA.VIC.GOV.AU,,,2018/06/06 00:00:00+00,,-37.5297037,145.338446,,,GAVIC419812886,41 WHITTLESEA-KINGLAKE ROAD,1,3763,KINGLAKE,0,-37.529703,145.338446
145.035488,-37.720286,158,EMERGENCY FACILITY,"An emergency management facility from which a particular agency’s resources are commanded, coordinated and assigned to an incident or emergency",AMBULANCE STATION,RESERVOIR AMBULANCE STATION,OPERATIONAL,,KINGSBURY,VICTORIA,3083,HTTP://DATA.VIC.GOV.AU,,HTTP://DATA.VIC.GOV.AU,,,2018/06/06 00:00:00+00,,-37.720286,145.035488,,,GAVIC423928842,895 PLENTY ROAD,1,3083,KINGSBURY,0,-37.72028641,145.0354881
145.826865,-38.436837,159,EMERGENCY FACILITY,"An emergency management facility from which a particular agency’s resources are commanded, coordinated and assigned to an incident or emergency",AMBULANCE STATION,KORUMBURRA AMBULANCE STATION,OPERATIONAL,,KORUMBURRA,VICTORIA,3950,HTTP://DATA.VIC.GOV.AU,,HTTP://DATA.VIC.GOV.AU,,,2018/06/06 00:00:00+00,,-38.436837,145.826865,,,GAVIC411680051,45 PRINCES STREET,1,3950,KORUMBURRA,17,-38.43673006,145.8270022
145.0455239,-36.3068745,160,EMERGENCY FACILITY,"An emergency management facility from which a particular agency’s resources are commanded, coordinated and assigned to an incident or emergency",AMBULANCE STATION,KYABRAM AMBULANCE STATION,OPERATIONAL,,KYABRAM,VICTORIA,3620,HTTP://DATA.VIC.GOV.AU,,HTTP://DATA.VIC.GOV.AU,,,2018/06/06 00:00:00+00,,-36.3068745,145.0455239,,,GAVIC421518509,4-8 MELLIS STREET,1,3620,KYABRAM,0,-36.30687456,145.0455239
142.9233091,-38.240629,161,EMERGENCY FACILITY,"An emergency management facility from which a particular agency’s resources are commanded, coordinated and assigned to an incident or emergency",AMBULANCE STATION,TERANG AMBULANCE STATION,OPERATIONAL,,TERANG,VICTORIA,3264,HTTP://DATA.VIC.GOV.AU,,HTTP://DATA.VIC.GOV.AU,,,2018/06/06 00:00:00+00,,-38.240629,142.9233091,,,GAVIC420599118,5 HAMPDEN STREET,1,3264,TERANG,0,-38.24062904,142.9233087
145.0013355,-37.68914687,162,EMERGENCY FACILITY,"An emergency management facility from which a particular agency’s resources are commanded, coordinated and assigned to an incident or emergency",AMBULANCE STATION,THOMASTOWN AMBULANCE STATION,OPERATIONAL,,THOMASTOWN,VICTORIA,3074,HTTP://DATA.VIC.GOV.AU,,HTTP://DATA.VIC.GOV.AU,,,2018/06/06 00:00:00+00,,-37.68914687,145.0013355,,,GAVIC423401688,4 LUCKNOW CRESCENT,1,3074,THOMASTOWN,0,-37.6891471,145.0013358
142.97581,-38.485699,163,EMERGENCY FACILITY,"An emergency management facility from which a particular agency’s resources are commanded, coordinated and assigned to an incident or emergency",AMBULANCE STATION,TIMBOON AMBULANCE STATION,OPERATIONAL,,TIMBOON,VICTORIA,3268,HTTP://DATA.VIC.GOV.AU,,HTTP://DATA.VIC.GOV.AU,,,2018/06/06 00:00:00+00,,-38.485699,142.97581,,,GAVIC424767831,25 WARK STREET,0,3268,TIMBOON,0,-38.48569855,142.9758095
144.315795,-38.322122,164,EMERGENCY FACILITY,"An emergency management facility from which a particular agency’s resources are commanded, coordinated and assigned to an incident or emergency",AMBULANCE STATION,TORQUAY AMBULANCE STATION,OPERATIONAL,,TORQUAY,VICTORIA,3228,HTTP://DATA.VIC.GOV.AU,,HTTP://DATA.VIC.GOV.AU,,,2018/06/06 00:00:00+00,,-38.322122,144.315795,,,GAVIC420954002,19 GROSSMANS ROAD,1,3228,TORQUAY,0,-38.32212188,144.3157949
146.547529,-38.195996,165,EMERGENCY FACILITY,"An emergency management facility from which a particular agency’s resources are commanded, coordinated and assigned to an incident or emergency",AMBULANCE STATION,TRARALGON AMBULANCE STATION,OPERATIONAL,,TRARALGON,VICTORIA,3844,HTTP://DATA.VIC.GOV.AU,,HTTP://DATA.VIC.GOV.AU,,,2018/06/06 00:00:00+00,,-38.195996,146.547529,,,GAVIC421916895,1-5 CAMPBELL STREET,1,3844,TRARALGON,0,-38.19599586,146.5475293
144.9784658,-37.41923871,166,EMERGENCY FACILITY,"An emergency management facility from which a particular agency’s resources are commanded, coordinated and assigned to an incident or emergency",AMBULANCE STATION,WALLAN AMBULANCE STATION,OPERATIONAL,,WALLAN,VICTORIA,3756,HTTP://DATA.VIC.GOV.AU,,HTTP://DATA.VIC.GOV.AU,,,2018/06/06 00:00:00+00,,-37.41923871,144.9784658,,,GAVIC421771241,1-5 HIGH STREET,1,3756,WALLAN,1,-37.41923384,144.978466
146.2991595,-36.3663176,167,EMERGENCY FACILITY,"An emergency management facility from which a particular agency’s resources are commanded, coordinated and assigned to an incident or emergency",AMBULANCE STATION,WANGARATTA AMBULANCE STATION,OPERATIONAL,,WANGARATTA,VICTORIA,3677,HTTP://DATA.VIC.GOV.AU,,HTTP://DATA.VIC.GOV.AU,,,2018/06/06 00:00:00+00,,-36.3663176,146.2991595,,,GAVIC420883104,113-121 TONE ROAD,0,3677,WANGARATTA,0,-36.36631724,146.2991593
145.2108762,-37.85900841,168,EMERGENCY FACILITY,"An emergency management facility from which a particular agency’s resources are commanded, coordinated and assigned to an incident or emergency",AMBULANCE STATION,WHEELERS HILL AMBULANCE STATION,OPERATIONAL,,WANTIRNA,VICTORIA,3152,HTTP://DATA.VIC.GOV.AU,,HTTP://DATA.VIC.GOV.AU,,,2018/06/06 00:00:00+00,,-37.85900841,145.2108762,,,GAVIC424625348,20 MOUNTAIN HIGHWAY,1,3152,WANTIRNA,0,-37.85900875,145.2108763
144.920471,-37.716107,169,EMERGENCY FACILITY,"An emergency management facility from which a particular agency’s resources are commanded, coordinated and assigned to an incident or emergency",AMBULANCE STATION,BROADMEADOWS AMBULANCE STATION,OPERATIONAL,,OAK PARK,VICTORIA,3046,HTTP://DATA.VIC.GOV.AU,,HTTP://DATA.VIC.GOV.AU,,,2018/06/06 00:00:00+00,,-37.716107,144.920471,,,GAVIC419916848,5 STRACHAN STREET,1,3046,OAK PARK,15,-37.71610194,144.9203019
145.1117214,-37.91467167,170,EMERGENCY FACILITY,"An emergency management facility from which a particular agency’s resources are commanded, coordinated and assigned to an incident or emergency",AMBULANCE STATION,WAVERLEY AMBULANCE STATION,OPERATIONAL,,OAKLEIGH SOUTH,VICTORIA,3167,HTTP://DATA.VIC.GOV.AU,,HTTP://DATA.VIC.GOV.AU,,,2018/06/06 00:00:00+00,,-37.91467167,145.1117214,,,GAVIC421437359,36 MANTON ROAD,1,3167,OAKLEIGH SOUTH,0,-37.914671,145.111721
144.53802,-38.254409,171,EMERGENCY FACILITY,"An emergency management facility from which a particular agency’s resources are commanded, coordinated and assigned to an incident or emergency",AMBULANCE STATION,OCEAN GROVE AMBULANCE STATION,OPERATIONAL,,OCEAN GROVE,VICTORIA,3226,HTTP://DATA.VIC.GOV.AU,,HTTP://DATA.VIC.GOV.AU,,,2018/06/06 00:00:00+00,,-38.254409,144.53802,,,GAVIC423819902,9-11 ADCO GROVE,1,3226,OCEAN GROVE,0,-38.25440855,144.5380208
147.601541,-37.098764,172,EMERGENCY FACILITY,"An emergency management facility from which a particular agency’s resources are commanded, coordinated and assigned to an incident or emergency",AMBULANCE STATION,OMEO AMBULANCE STATION,OPERATIONAL,,OMEO,VICTORIA,3898,HTTP://DATA.VIC.GOV.AU,,HTTP://DATA.VIC.GOV.AU,,,2018/06/06 00:00:00+00,,-37.098764,147.601541,,,GAVIC424611465,110 BILTON STREET,0,3898,OMEO,0,-37.09876354,147.6015403
148.465536,-37.701716,173,EMERGENCY FACILITY,"An emergency management facility from which a particular agency’s resources are commanded, coordinated and assigned to an incident or emergency",AMBULANCE STATION,ORBOST AMBULANCE STATION,OPERATIONAL,,ORBOST,VICTORIA,3888,HTTP://DATA.VIC.GOV.AU,,HTTP://DATA.VIC.GOV.AU,,,2018/06/06 00:00:00+00,,-37.701716,148.465536,,ORBOST REGIONAL HEALTH AND MEDICAL CLINIC,GAVIC421613945,104 BOUNDARY ROAD,2,3888,ORBOST,65,-37.70155168,148.4648278
142.3129375,-35.07283525,174,EMERGENCY FACILITY,"An emergency management facility from which a particular agency’s resources are commanded, coordinated and assigned to an incident or emergency",AMBULANCE STATION,OUYEN AMBULANCE STATION,OPERATIONAL,,OUYEN,VICTORIA,3490,HTTP://DATA.VIC.GOV.AU,,HTTP://DATA.VIC.GOV.AU,,,2018/06/06 00:00:00+00,,-35.07283525,142.3129375,,,GAVIC412069061,2 CLAY AVENUE,2,3490,OUYEN,0,-35.07283542,142.3129372
145.481089,-38.076737,175,EMERGENCY FACILITY,"An emergency management facility from which a particular agency’s resources are commanded, coordinated and assigned to an incident or emergency",AMBULANCE STATION,PAKENHAM AMBULANCE STATION,OPERATIONAL,,PAKENHAM,VICTORIA,3810,HTTP://DATA.VIC.GOV.AU,,HTTP://DATA.VIC.GOV.AU,,,2018/06/06 00:00:00+00,,-38.076737,145.481089,,,GAVIC421501921,80-82 MAIN STREET,1,3810,PAKENHAM,0,-38.07673652,145.4810893
144.938185,-37.731746,176,EMERGENCY FACILITY,"An emergency management facility from which a particular agency’s resources are commanded, coordinated and assigned to an incident or emergency",AMBULANCE STATION,COBURG AMBULANCE STATION,OPERATIONAL,,PASCOE VALE,VICTORIA,3044,HTTP://DATA.VIC.GOV.AU,,HTTP://DATA.VIC.GOV.AU,,,2018/06/06 00:00:00+00,,-37.731746,144.938185,,,GAVIC421027178,345 GAFFNEY STREET,1,3044,PASCOE VALE,16,-37.73162926,144.9380847
142.190215,-35.380429,177,EMERGENCY FACILITY,"An emergency management facility from which a particular agency’s resources are commanded, coordinated and assigned to an incident or emergency",AMBULANCE STATION,PATCHEWOLLOCK AMBULANCE STATION,OPERATIONAL,,PATCHEWOLLOCK,VICTORIA,3491,HTTP://DATA.VIC.GOV.AU,,HTTP://DATA.VIC.GOV.AU,,,2018/06/06 00:00:00+00,,-35.380429,142.190215,,,GAVIC422122713,15 ALGERIAN STREET,1,3491,PATCHEWOLLOCK,0,-35.3804286,142.190215
147.7198917,-37.91838048,178,EMERGENCY FACILITY,"An emergency management facility from which a particular agency’s resources are commanded, coordinated and assigned to an incident or emergency",AMBULANCE STATION,PAYNESVILLE AMBULANCE STATION,OPERATIONAL,,PAYNESVILLE,VICTORIA,3880,HTTP://DATA.VIC.GOV.AU,,HTTP://DATA.VIC.GOV.AU,,,2018/06/06 00:00:00+00,,-37.91838048,147.7198917,,,GAVIC421552944,4 LANGFORD PARADE,2,3880,PAYNESVILLE,0,-37.9183806,147.7198915
142.289778,-37.874248,179,EMERGENCY FACILITY,"An emergency management facility from which a particular agency’s resources are commanded, coordinated and assigned to an incident or emergency",AMBULANCE STATION,PENSHURST AMBULANCE STATION,OPERATIONAL,,PENSHURST,VICTORIA,3289,HTTP://DATA.VIC.GOV.AU,,HTTP://DATA.VIC.GOV.AU,,,2018/06/06 00:00:00+00,,-37.874248,142.289778,,,GAVIC424623626,39 MARTIN STREET,1,3289,PENSHURST,0,-37.87424804,142.2897781
144.754616,-37.887357,180,EMERGENCY FACILITY,"An emergency management facility from which a particular agency’s resources are commanded, coordinated and assigned to an incident or emergency",AMBULANCE STATION,POINT COOK AMBULANCE STATION,OPERATIONAL,,POINT COOK,VICTORIA,3030,HTTP://DATA.VIC.GOV.AU,,HTTP://DATA.VIC.GOV.AU,,,2018/06/06 00:00:00+00,,-37.887357,144.754616,,,GAVIC420648039,13 DUNNINGS ROAD,1,3030,POINT COOK,0,-37.88735713,144.7546156
142.230042,-38.374679,181,EMERGENCY FACILITY,"An emergency management facility from which a particular agency’s resources are commanded, coordinated and assigned to an incident or emergency",AMBULANCE STATION,PORT FAIRY AMBULANCE STATION,OPERATIONAL,,PORT FAIRY,VICTORIA,3284,HTTP://DATA.VIC.GOV.AU,,HTTP://DATA.VIC.GOV.AU,,,2018/06/06 00:00:00+00,,-38.374679,142.230042,,,GAVIC414182351,116 PRINCES HIGHWAY,1,3284,PORT FAIRY,0,-38.37467841,142.2300421
141.603722,-38.335521,182,EMERGENCY FACILITY,"An emergency management facility from which a particular agency’s resources are commanded, coordinated and assigned to an incident or emergency",AMBULANCE STATION,PORTLAND AMBULANCE STATION,OPERATIONAL,,PORTLAND,VICTORIA,3305,HTTP://DATA.VIC.GOV.AU,,HTTP://DATA.VIC.GOV.AU,,,2018/06/06 00:00:00+00,,-38.335521,141.603722,,,GAVIC421733745,1 NEW STREET,1,3305,PORTLAND,0,-38.3355212,141.6037216
145.0257601,-37.74565202,183,EMERGENCY FACILITY,"An emergency management facility from which a particular agency’s resources are commanded, coordinated and assigned to an incident or emergency",AMBULANCE STATION,NORTH EAST SRC AMBULANCE STATION,OPERATIONAL,,PRESTON,VICTORIA,3072,HTTP://DATA.VIC.GOV.AU,,HTTP://DATA.VIC.GOV.AU,,,2018/06/06 00:00:00+00,,-37.74565202,145.0257601,,,GAVIC413137956,92 BELL STREET,0,3072,PRESTON,5,-37.7456926,145.0257529
145.0205317,-37.74603717,184,EMERGENCY FACILITY,"An emergency management facility from which a particular agency’s resources are commanded, coordinated and assigned to an incident or emergency",AMBULANCE STATION,NORTHLAND AMBULANCE STATION,OPERATIONAL,,PRESTON,VICTORIA,3072,HTTP://DATA.VIC.GOV.AU,,HTTP://DATA.VIC.GOV.AU,,,2018/06/06 00:00:00+00,,-37.74603717,145.0205317,,,GAVIC424501148,10-12 OVANDO STREET,1,3072,PRESTON,0,-37.7460373,145.0205318
141.9945286,-35.904144,185,EMERGENCY FACILITY,"An emergency management facility from which a particular agency’s resources are commanded, coordinated and assigned to an incident or emergency",AMBULANCE STATION,RAINBOW AMBULANCE STATION,OPERATIONAL,,RAINBOW,VICTORIA,3424,HTTP://DATA.VIC.GOV.AU,,HTTP://DATA.VIC.GOV.AU,,,2018/06/06 00:00:00+00,,-35.904144,141.9945286,,,GAVIC720064922,2 RAILWAY STREET,0,3424,RAINBOW,93,-35.9047732,141.9938417
144.7460757,-37.76751736,186,EMERGENCY FACILITY,"An emergency management facility from which a particular agency’s resources are commanded, coordinated and assigned to an incident or emergency",AMBULANCE STATION,MICA 13 AMBULANCE STATION,OPERATIONAL,,RAVENHALL,VICTORIA,3023,HTTP://DATA.VIC.GOV.AU,,HTTP://DATA.VIC.GOV.AU,,,2018/06/06 00:00:00+00,,-37.76751736,144.7460757,,,GAVIC425082940,142 EUCUMBENE DRIVE,1,3023,RAVENHALL,0,-37.76751747,144.7460758
144.993357,-37.816819,187,EMERGENCY FACILITY,"An emergency management facility from which a particular agency’s resources are commanded, coordinated and assigned to an incident or emergency",AMBULANCE STATION,EPWORTH HOSPITAL AMBULANCE STATION,OPERATIONAL,,RICHMOND,VICTORIA,3121,HTTP://DATA.VIC.GOV.AU,,HTTP://DATA.VIC.GOV.AU,,,2018/06/06 00:00:00+00,,-37.816819,144.993357,,,GAVIC424490961,40 ERIN STREET,1,3121,RICHMOND,3,-37.81683803,144.9933369
145.011327,-37.816925,188,EMERGENCY FACILITY,"An emergency management facility from which a particular agency’s resources are commanded, coordinated and assigned to an incident or emergency",AMBULANCE STATION,RICHMOND AMBULANCE STATION,OPERATIONAL,,RICHMOND,VICTORIA,3121,HTTP://DATA.VIC.GOV.AU,,HTTP://DATA.VIC.GOV.AU,,,2018/06/06 00:00:00+00,,-37.816925,145.011327,,,GAVIC420786300,61 CROWN STREET,1,3121,RICHMOND,0,-37.816925,145.011327
145.239582,-37.809772,189,EMERGENCY FACILITY,"An emergency management facility from which a particular agency’s resources are commanded, coordinated and assigned to an incident or emergency",AMBULANCE STATION,RINGWOOD AMBULANCE STATION,OPERATIONAL,,RINGWOOD,VICTORIA,3134,HTTP://DATA.VIC.GOV.AU,,HTTP://DATA.VIC.GOV.AU,,,2018/06/06 00:00:00+00,,-37.809772,145.239582,,,GAVIC421270498,282 MAROONDAH HIGHWAY,2,3134,RINGWOOD,0,-37.809772,145.239582
145.247799,-37.808755,190,EMERGENCY FACILITY,"An emergency management facility from which a particular agency’s resources are commanded, coordinated and assigned to an incident or emergency",AMBULANCE STATION,MICA 8 AMBULANCE STATION,OPERATIONAL,,RINGWOOD EAST,VICTORIA,3135,HTTP://DATA.VIC.GOV.AU,,HTTP://DATA.VIC.GOV.AU,,,2018/06/06 00:00:00+00,,-37.808755,145.247799,,,GAVIC423806062,51 MT DANDENONG ROAD,2,3135,RINGWOOD EAST,0,-37.80875525,145.2477986
142.781005,-34.584113,191,EMERGENCY FACILITY,"An emergency management facility from which a particular agency’s resources are commanded, coordinated and assigned to an incident or emergency",AMBULANCE STATION,ROBINVALE AMBULANCE STATION,OPERATIONAL,,ROBINVALE,VICTORIA,3549,HTTP://DATA.VIC.GOV.AU,,HTTP://DATA.VIC.GOV.AU,,,2018/06/06 00:00:00+00,,-34.584113,142.781005,,,GAVIC412205360,15 NICHOLLS STREET,1,3549,ROBINVALE,0,-34.58411333,142.7810049
144.699325,-36.363766,192,EMERGENCY FACILITY,"An emergency management facility from which a particular agency’s resources are commanded, coordinated and assigned to an incident or emergency",AMBULANCE STATION,ROCHESTER AMBULANCE STATION,OPERATIONAL,,ROCHESTER,VICTORIA,3561,HTTP://DATA.VIC.GOV.AU,,HTTP://DATA.VIC.GOV.AU,,,2018/06/06 00:00:00+00,,-36.363766,144.699325,,,GAVIC720515095,UNIT 1 22 MACKAY STREET,0,3561,ROCHESTER,0,-36.36376552,144.699325
144.741715,-37.343753,193,EMERGENCY FACILITY,"An emergency management facility from which a particular agency’s resources are commanded, coordinated and assigned to an incident or emergency",AMBULANCE STATION,ROMSEY AMBULANCE STATION,OPERATIONAL,,ROMSEY,VICTORIA,3434,HTTP://DATA.VIC.GOV.AU,,HTTP://DATA.VIC.GOV.AU,,,2018/06/06 00:00:00+00,,-37.343753,144.741715,,,GAVIC414322428,157 MAIN STREET,1,3434,ROMSEY,19,-37.34358494,144.7416959
144.9119365,-38.3546692,194,EMERGENCY FACILITY,"An emergency management facility from which a particular agency’s resources are commanded, coordinated and assigned to an incident or emergency",AMBULANCE STATION,MICA 12 AMBULANCE STATION,OPERATIONAL,,ROSEBUD,VICTORIA,3939,HTTP://DATA.VIC.GOV.AU,,HTTP://DATA.VIC.GOV.AU,,,2018/06/06 00:00:00+00,,-38.3546692,144.9119365,,,GAVIC414778348,23-29 MITCHELL STREET,0,3939,ROSEBUD,0,-38.354668,144.911936
145.2350025,-37.91317222,195,EMERGENCY FACILITY,"An emergency management facility from which a particular agency’s resources are commanded, coordinated and assigned to an incident or emergency",AMBULANCE STATION,ROWVILLE AMBULANCE STATION,OPERATIONAL,,ROWVILLE,VICTORIA,3178,HTTP://DATA.VIC.GOV.AU,,HTTP://DATA.VIC.GOV.AU,,,2018/06/06 00:00:00+00,,-37.91317222,145.2350025,,,GAVIC424616395,6 ENTERPRISE DRIVE,1,3178,ROWVILLE,20,-37.91333049,145.2351033
142.6316268,-36.63751804,196,EMERGENCY FACILITY,"An emergency management facility from which a particular agency’s resources are commanded, coordinated and assigned to an incident or emergency",AMBULANCE STATION,RUPANYUP AMBULANCE STATION,OPERATIONAL,,RUPANYUP,VICTORIA,3388,HTTP://DATA.VIC.GOV.AU,,HTTP://DATA.VIC.GOV.AU,,,2018/06/06 00:00:00+00,,-36.63751804,142.6316268,,,GAVIC719795393,97 CROMIE STREET,0,3388,RUPANYUP,0,-36.63751612,142.6316299
147.0909998,-38.10151141,197,EMERGENCY FACILITY,"An emergency management facility from which a particular agency’s resources are commanded, coordinated and assigned to an incident or emergency",AMBULANCE STATION,SALE AMBULANCE STATION,OPERATIONAL,,SALE,VICTORIA,3850,HTTP://DATA.VIC.GOV.AU,,HTTP://DATA.VIC.GOV.AU,,,2018/06/06 00:00:00+00,,-38.10151141,147.0909998,,,GAVIC414731861,332 RAGLAN STREET,0,3850,SALE,0,-38.10151134,147.0910001
142.853113,-35.504024,198,EMERGENCY FACILITY,"An emergency management facility from which a particular agency’s resources are commanded, coordinated and assigned to an incident or emergency",AMBULANCE STATION,SEA LAKE AMBULANCE STATION,OPERATIONAL,,SEA LAKE,VICTORIA,3533,HTTP://DATA.VIC.GOV.AU,,HTTP://DATA.VIC.GOV.AU,,,2018/06/06 00:00:00+00,,-35.504024,142.853113,,,GAVIC421288988,151 BEST STREET,1,3533,SEA LAKE,0,-35.50402455,142.8531129
145.142108,-38.114532,199,EMERGENCY FACILITY,"An emergency management facility from which a particular agency’s resources are commanded, coordinated and assigned to an incident or emergency",AMBULANCE STATION,SEAFORD AMBULANCE STATION,OPERATIONAL,,SEAFORD,VICTORIA,3198,HTTP://DATA.VIC.GOV.AU,,HTTP://DATA.VIC.GOV.AU,,,2018/06/06 00:00:00+00,,-38.114532,145.142108,,,GAVIC421885220,3 SIR LAURENCE DRIVE,2,3198,SEAFORD,0,-38.11453229,145.1421075
143.844424,-37.599542,200,EMERGENCY FACILITY,"An emergency management facility from which a particular agency’s resources are commanded, coordinated and assigned to an incident or emergency",AMBULANCE STATION,SEBASTOPOL AMBULANCE STATION,OPERATIONAL,,SEBASTOPOL,VICTORIA,3356,HTTP://DATA.VIC.GOV.AU,,HTTP://DATA.VIC.GOV.AU,,,2018/06/06 00:00:00+00,,-37.599542,143.844424,,,GAVIC421472982,26 BRIDGE STREET,1,3356,SEBASTOPOL,0,-37.59954271,143.8444237
145.316996,-38.028076,201,EMERGENCY FACILITY,"An emergency management facility from which a particular agency’s resources are commanded, coordinated and assigned to an incident or emergency",AMBULANCE STATION,BERWICK AMBULANCE STATION,OPERATIONAL,,NARRE WARREN,VICTORIA,3805,HTTP://DATA.VIC.GOV.AU,,HTTP://DATA.VIC.GOV.AU,,,2018/06/06 00:00:00+00,,-38.028076,145.316996,,,GAVIC411989764,557 PRINCES HIGHWAY,0,3805,NARRE WARREN,0,-38.028075,145.316995
145.9541381,-38.02150287,202,EMERGENCY FACILITY,"An emergency management facility from which a particular agency’s resources are commanded, coordinated and assigned to an incident or emergency",AMBULANCE STATION,NEERIM SOUTH AMBULANCE STATION,OPERATIONAL,,NEERIM SOUTH,VICTORIA,3831,HTTP://DATA.VIC.GOV.AU,,HTTP://DATA.VIC.GOV.AU,,,2018/06/06 00:00:00+00,,-38.02150287,145.9541381,,,GAVIC424623041,41 MAIN NEERIM ROAD,1,3831,NEERIM SOUTH,0,-38.02150258,145.9541377
141.6526784,-36.33613218,203,EMERGENCY FACILITY,"An emergency management facility from which a particular agency’s resources are commanded, coordinated and assigned to an incident or emergency",AMBULANCE STATION,NHILL AMBULANCE STATION,OPERATIONAL,,NHILL,VICTORIA,3418,HTTP://DATA.VIC.GOV.AU,,HTTP://DATA.VIC.GOV.AU,,,2018/06/06 00:00:00+00,,-36.33613218,141.6526784,,,GAVIC414304512,15 CAMPBELL STREET,1,3418,NHILL,0,-36.33613278,141.6526786
145.185058,-37.9591,204,EMERGENCY FACILITY,"An emergency management facility from which a particular agency’s resources are commanded, coordinated and assigned to an incident or emergency",AMBULANCE STATION,NOBLE PARK AMBULANCE STATION,OPERATIONAL,,NOBLE PARK,VICTORIA,3174,HTTP://DATA.VIC.GOV.AU,,HTTP://DATA.VIC.GOV.AU,,,2018/06/06 00:00:00+00,,-37.9591,145.185058,,,GAVIC419691462,425 PRINCES HIGHWAY,1,3174,NOBLE PARK,12,-37.95918443,145.1851478
144.3571267,-38.086096,205,EMERGENCY FACILITY,"An emergency management facility from which a particular agency’s resources are commanded, coordinated and assigned to an incident or emergency",AMBULANCE STATION,NORLANE AMBULANCE STATION,OPERATIONAL,,NORLANE,VICTORIA,3214,HTTP://DATA.VIC.GOV.AU,,HTTP://DATA.VIC.GOV.AU,,,2018/06/06 00:00:00+00,,-38.086096,144.3571267,,,GAVIC421436046,145 PRINCES HIGHWAY,1,3214,NORLANE,0,-38.08609623,144.3571269
145.4445933,-36.09939928,206,EMERGENCY FACILITY,"An emergency management facility from which a particular agency’s resources are commanded, coordinated and assigned to an incident or emergency",AMBULANCE STATION,NUMURKAH AMBULANCE STATION,OPERATIONAL,,NUMURKAH,VICTORIA,3636,HTTP://DATA.VIC.GOV.AU,,HTTP://DATA.VIC.GOV.AU,,,2018/06/06 00:00:00+00,,-36.09939928,145.4445933,,,GAVIC719103936,4-6 KATAMATITE-NATHALIA ROAD,-1,3636,NUMURKAH,0,-36.09939933,145.4445937
145.175765,-37.817857,207,EMERGENCY FACILITY,"An emergency management facility from which a particular agency’s resources are commanded, coordinated and assigned to an incident or emergency",AMBULANCE STATION,NUNAWADING AMBULANCE STATION,OPERATIONAL,,NUNAWADING,VICTORIA,3131,HTTP://DATA.VIC.GOV.AU,,HTTP://DATA.VIC.GOV.AU,,,2018/06/06 00:00:00+00,,-37.817857,145.175765,,,GAVIC421071151,130 SPRINGVALE ROAD,1,3131,NUNAWADING,0,-37.817856,145.175765
143.355679,-35.185757,208,EMERGENCY FACILITY,"An emergency management facility from which a particular agency’s resources are commanded, coordinated and assigned to an incident or emergency",AMBULANCE STATION,NYAH WEST AMBULANCE STATION,OPERATIONAL,,NYAH WEST,VICTORIA,3595,HTTP://DATA.VIC.GOV.AU,,HTTP://DATA.VIC.GOV.AU,,,2018/06/06 00:00:00+00,,-35.185757,143.355679,,,GAVIC423476046,5 MONASH AVENUE,1,3595,NYAH WEST,0,-35.18575655,143.3556788
145.13825,-37.017583,209,EMERGENCY FACILITY,"An emergency management facility from which a particular agency’s resources are commanded, coordinated and assigned to an incident or emergency",AMBULANCE STATION,SEYMOUR AMBULANCE STATION,OPERATIONAL,,SEYMOUR,VICTORIA,3660,HTTP://DATA.VIC.GOV.AU,,HTTP://DATA.VIC.GOV.AU,,,2018/06/06 00:00:00+00,,-37.017583,145.13825,,,GAVIC423672866,22 CALLEN STREET,1,3660,SEYMOUR,0,-37.01758371,145.1382505
145.400209,-36.375738,210,EMERGENCY FACILITY,"An emergency management facility from which a particular agency’s resources are commanded, coordinated and assigned to an incident or emergency",AMBULANCE STATION,SHEPPARTON AMBULANCE STATION,OPERATIONAL,,SHEPPARTON,VICTORIA,3630,HTTP://DATA.VIC.GOV.AU,,HTTP://DATA.VIC.GOV.AU,,,2018/06/06 00:00:00+00,,-36.375738,145.400209,,,GAVIC420665267,102 WYNDHAM STREET,0,3630,SHEPPARTON,0,-36.3757381,145.4002088
143.359551,-37.684945,211,EMERGENCY FACILITY,"An emergency management facility from which a particular agency’s resources are commanded, coordinated and assigned to an incident or emergency",AMBULANCE STATION,SKIPTON AMBULANCE STATION,OPERATIONAL,,SKIPTON,VICTORIA,3361,HTTP://DATA.VIC.GOV.AU,,HTTP://DATA.VIC.GOV.AU,,,2018/06/06 00:00:00+00,,-37.684945,143.359551,,,GAVIC424066336,54-56 MONTGOMERY STREET,0,3361,SKIPTON,0,-37.68494541,143.3595505
145.182517,-38.22240551,212,EMERGENCY FACILITY,"An emergency management facility from which a particular agency’s resources are commanded, coordinated and assigned to an incident or emergency",AMBULANCE STATION,SOMERVILLE AMBULANCE STATION,OPERATIONAL,,SOMERVILLE,VICTORIA,3912,HTTP://DATA.VIC.GOV.AU,,HTTP://DATA.VIC.GOV.AU,,,2018/06/06 00:00:00+00,,-38.22240551,145.182517,,,GAVIC425615246,UNIT 5 50 GUELPH STREET,1,3912,SOMERVILLE,19,-38.22223791,145.1824654
144.736403,-38.335558,213,EMERGENCY FACILITY,"An emergency management facility from which a particular agency’s resources are commanded, coordinated and assigned to an incident or emergency",AMBULANCE STATION,SORRENTO AMBULANCE STATION,OPERATIONAL,,SORRENTO,VICTORIA,3943,HTTP://DATA.VIC.GOV.AU,,HTTP://DATA.VIC.GOV.AU,,,2018/06/06 00:00:00+00,,-38.335558,144.736403,,,GAVIC420135533,68 HOTHAM ROAD,2,3943,SORRENTO,0,-38.33555856,144.7364045
144.941704,-37.826254,214,EMERGENCY FACILITY,"An emergency management facility from which a particular agency’s resources are commanded, coordinated and assigned to an incident or emergency",AMBULANCE STATION,PORT MELBOURNE AMBULANCE STATION,OPERATIONAL,,SOUTH MELBOURNE,VICTORIA,3205,HTTP://DATA.VIC.GOV.AU,,HTTP://DATA.VIC.GOV.AU,,,2018/06/06 00:00:00+00,,-37.826254,144.941704,,,GAVIC424532420,61-75 BRADY STREET,0,3205,SOUTH MELBOURNE,0,-37.82625397,144.9417041
144.9632901,-37.83126609,215,EMERGENCY FACILITY,"An emergency management facility from which a particular agency’s resources are commanded, coordinated and assigned to an incident or emergency",AMBULANCE STATION,SOUTH MELBOURNE AMBULANCE STATION,OPERATIONAL,,SOUTH MELBOURNE,VICTORIA,3205,HTTP://DATA.VIC.GOV.AU,,HTTP://DATA.VIC.GOV.AU,,,2018/06/06 00:00:00+00,,-37.83126609,144.9632901,,,GAVIC414045182,187-191 COVENTRY STREET,1,3205,SOUTH MELBOURNE,0,-37.83126598,144.96329
145.144188,-37.92967398,216,EMERGENCY FACILITY,"An emergency management facility from which a particular agency’s resources are commanded, coordinated and assigned to an incident or emergency",AMBULANCE STATION,MICA 11 AMBULANCE STATION,OPERATIONAL,,SPRINGVALE,VICTORIA,3171,HTTP://DATA.VIC.GOV.AU,,HTTP://DATA.VIC.GOV.AU,,,2018/06/06 00:00:00+00,,-37.92967398,145.144188,,,GAVIC423732469,FCTY 12B 2 WESTALL ROAD,0,3171,SPRINGVALE,0,-37.92967386,145.1441883
143.2606172,-36.617052,217,EMERGENCY FACILITY,"An emergency management facility from which a particular agency’s resources are commanded, coordinated and assigned to an incident or emergency",AMBULANCE STATION,ST ARNAUD AMBULANCE STATION,OPERATIONAL,,ST ARNAUD,VICTORIA,3478,HTTP://DATA.VIC.GOV.AU,,HTTP://DATA.VIC.GOV.AU,,,2018/06/06 00:00:00+00,,-36.617052,143.2606172,,,GAVIC419538286,27 DUNDAS STREET,1,3478,ST ARNAUD,0,-36.617052,143.2606174
144.987861,-37.866109,218,EMERGENCY FACILITY,"An emergency management facility from which a particular agency’s resources are commanded, coordinated and assigned to an incident or emergency",AMBULANCE STATION,WINDSOR AMBULANCE STATION,OPERATIONAL,,ST KILDA,VICTORIA,3182,HTTP://DATA.VIC.GOV.AU,,HTTP://DATA.VIC.GOV.AU,,,2018/06/06 00:00:00+00,,-37.866109,144.987861,,,GAVIC423085806,25-27 PAKINGTON STREET,0,3182,ST KILDA,0,-37.86610895,144.9878614
142.777414,-37.058203,219,EMERGENCY FACILITY,"An emergency management facility from which a particular agency’s resources are commanded, coordinated and assigned to an incident or emergency",AMBULANCE STATION,STAWELL AMBULANCE STATION,OPERATIONAL,,STAWELL,VICTORIA,3380,HTTP://DATA.VIC.GOV.AU,,HTTP://DATA.VIC.GOV.AU,,,2018/06/06 00:00:00+00,,-37.058203,142.777414,,,GAVIC421158840,7 VICTORIA STREET,-1,3380,STAWELL,10,-37.05815508,142.7775058
